{"generationTimestamp":"Wed, 07 Jan 2026 16:28:15 GMT","season":2020,"teams":[{"number":3954,"name":"Pink to the Future","org":"Maerlant-Lyceum","rookieYear":2009,"homeRegion":"NL","coords":{"lat":52.092,"lng":4.3215}},{"number":5843,"name":"AutoVortex","org":"Colegiul National de Informatica \"Tudor Vianu\"","rookieYear":2011,"homeRegion":"RO","coords":{"lat":44.4579,"lng":26.0798}},{"number":9746,"name":"PML30 North Wind","org":"Starline & St. Petersburg Governor Physics and Mathematics Lyceum #30","rookieYear":2014,"homeRegion":"RU","coords":{"lat":59.9387,"lng":30.3162}},{"number":10183,"name":"F.R.O.G  Frog Robots Of Germany","org":"Koenigin-Katharina-Stift","rookieYear":2015,"homeRegion":"DE","coords":{"lat":48.7815,"lng":9.1838}},{"number":10854,"name":"ASP Rebels","org":"American School of Paris","rookieYear":2015,"homeRegion":null,"coords":{"lat":48.8406,"lng":2.1967}},{"number":10879,"name":"AutoVortex Lady Division","org":"Romanian Association of Economic Studies","rookieYear":2015,"homeRegion":"RO","coords":{"lat":44.4903,"lng":26.1773}},{"number":10884,"name":"AutoVortex Gentlemen Division","org":"Romanian Association of Economic Studies","rookieYear":2015,"homeRegion":"RO","coords":{"lat":44.4903,"lng":26.1773}},{"number":10886,"name":"AutoVortex Tudor Vianu Apocalypse","org":"Tudor Vianu Informatics College","rookieYear":2015,"homeRegion":"RO","coords":{"lat":44.4578,"lng":26.0988}},{"number":10918,"name":"SPACE","org":"Newmancollege","rookieYear":2015,"homeRegion":"NL","coords":{"lat":51.5888,"lng":4.776}},{"number":11022,"name":"AutoVortex National","org":"Liceul Teoretic National","rookieYear":2015,"homeRegion":"RO","coords":{"lat":44.4466,"lng":26.0822}},{"number":11041,"name":"FalconTech","org":"International School of Prague","rookieYear":2015,"homeRegion":null,"coords":{"lat":50.0864,"lng":14.4157}},{"number":11044,"name":"PML30 White Nights","org":"St. Petersburg Governor Physics and Mathematics Lyceum #30","rookieYear":2015,"homeRegion":"RU","coords":{"lat":59.9625,"lng":30.3328}},{"number":11058,"name":"AutoVortex Transilvania","org":"Colegiul National de Informatica \"Tudor Vianu\"","rookieYear":2015,"homeRegion":"RO","coords":{"lat":44.4579,"lng":26.0798}},{"number":12463,"name":"RoboCats","org":"K\u00f6nigin-Katharina-Stift","rookieYear":2016,"homeRegion":"DE","coords":{"lat":48.7815,"lng":9.1838}},{"number":12475,"name":"Beyond Reach","org":"Zwijsen College","rookieYear":2016,"homeRegion":"NL","coords":{"lat":51.6268,"lng":5.5404}},{"number":12524,"name":"Sputnik Original","org":"GBOU Lyceum #244","rookieYear":2016,"homeRegion":"RU","coords":{"lat":59.7175,"lng":30.3968}},{"number":12529,"name":"KTM","org":" The Peter the Great St.Petersburg Polytechnic University, \"Engineers of the future Russia\"","rookieYear":2016,"homeRegion":"RU","coords":{"lat":59.9415,"lng":30.3037}},{"number":12560,"name":"Soft Hoarders","org":"\"Fra\u0163ii Buze\u015fti\" National Collage ","rookieYear":2016,"homeRegion":"RO","coords":{"lat":44.3174,"lng":23.7991}},{"number":12819,"name":"The Third Half","org":"Zwijsen College","rookieYear":2017,"homeRegion":"NL","coords":{"lat":51.6268,"lng":5.5404}},{"number":14103,"name":"Sputnik S.O.S. (Sound of Science)","org":"GBOU Liceum 244","rookieYear":2017,"homeRegion":"RU","coords":{"lat":59.9011,"lng":30.3426}},{"number":14144,"name":"thE progrAmming alliGators","org":"Ernst-Abbe-Gymnasium","rookieYear":2017,"homeRegion":"DE","coords":{"lat":52.4838,"lng":13.4377}},{"number":14183,"name":"Dukes of Brabant","org":"Summa College","rookieYear":2017,"homeRegion":"NL","coords":{"lat":51.4739,"lng":5.4446}},{"number":14249,"name":"AutoVortex FAN COURIER","org":"Colegiul National de Informatica \"Tudor Vianu\"","rookieYear":2017,"homeRegion":"RO","coords":{"lat":44.4579,"lng":26.0798}},{"number":14270,"name":"Quantum Robotics","org":"International Computer High School of Bucharest","rookieYear":2017,"homeRegion":"RO","coords":{"lat":44.4087,"lng":26.2108}},{"number":14277,"name":"QUBE.","org":"'Mihai Viteazul' National College Bucharest","rookieYear":2017,"homeRegion":"RO","coords":{"lat":44.439,"lng":26.1243}},{"number":14278,"name":"Xeo","org":"National Highschool \"Horea, Closca si Crisan\" Alba Iulia","rookieYear":2017,"homeRegion":"RO","coords":{"lat":46.0665,"lng":23.5635}},{"number":14381,"name":"Dutch Warriors","org":"Dr.-Knippenbergcollege","rookieYear":2018,"homeRegion":"NL","coords":{"lat":51.4918,"lng":5.6669}},{"number":14438,"name":"Noosphere Robotics","org":"Family/Community","rookieYear":2018,"homeRegion":null,"coords":{"lat":50.4909,"lng":30.5587}},{"number":15965,"name":"Esentza Robotics","org":"Colegiul Na\u0163ional Petru Rares ","rookieYear":2018,"homeRegion":"RO","coords":{"lat":47.1768,"lng":24.1766}},{"number":15966,"name":"Esentza Revolution","org":"Colegiul Na\u0163ional Petru Rares","rookieYear":2018,"homeRegion":"RO","coords":{"lat":47.1768,"lng":24.1766}},{"number":15972,"name":"TehnoZ","org":"Zinca Golescu","rookieYear":2018,"homeRegion":"RO","coords":{"lat":44.8533,"lng":24.8737}},{"number":15975,"name":"ROBOTX HUNEDOARA","org":"Liceul Teoretic \"Traian Lalescu\"","rookieYear":2018,"homeRegion":"RO","coords":{"lat":45.8647,"lng":22.9013}},{"number":15986,"name":"RaSky","org":"Colegiul National \"Elena Cuza\"","rookieYear":2018,"homeRegion":"RO","coords":{"lat":44.3201,"lng":23.7929}},{"number":15989,"name":"RoboTitans","org":"Colegiul National \"Sf. Sava\"","rookieYear":2018,"homeRegion":"RO","coords":{"lat":44.4413,"lng":26.0909}},{"number":15991,"name":"Gamma","org":"Colegiul National \"Sf. Sava\"","rookieYear":2018,"homeRegion":"RO","coords":{"lat":44.4413,"lng":26.0909}},{"number":15993,"name":"infO(1)Robotics","org":"National College \"Ion Luca Caragiale\" Ploie\u0219ti","rookieYear":2018,"homeRegion":"RO","coords":{"lat":44.945,"lng":26.0265}},{"number":15996,"name":"BrickBot","org":"Colegiul National Unirea","rookieYear":2018,"homeRegion":"RO","coords":{"lat":45.6979,"lng":27.1914}},{"number":16000,"name":"Gear Maniacs","org":"Colegiul National Samuel von Brukenthal","rookieYear":2018,"homeRegion":"RO","coords":{"lat":45.7973,"lng":24.1497}},{"number":16166,"name":"Watt'S Up","org":"Colegiul National \"Dinicu Golescu\"","rookieYear":2018,"homeRegion":"RO","coords":{"lat":45.2643,"lng":25.0408}},{"number":16360,"name":"Highland-Lynxes","org":"Family/Community","rookieYear":2019,"homeRegion":null,"coords":{"lat":47.3874,"lng":8.752}},{"number":16371,"name":"Neobots FTCunits","org":"Stichting Neobots","rookieYear":2019,"homeRegion":"NL","coords":{"lat":51.5646,"lng":5.461}},{"number":16382,"name":"Casimir Tech","org":"Lorentz Casimir Lyceum","rookieYear":2019,"homeRegion":"NL","coords":{"lat":51.4479,"lng":5.5085}},{"number":16383,"name":"Frits Philips Robotics team","org":"Frits Philips lyceum-mavo","rookieYear":2019,"homeRegion":"NL","coords":{"lat":51.4773,"lng":5.4473}},{"number":16392,"name":"Kronos Robotics","org":"Alexandru Ioan Cuza Highschool","rookieYear":2019,"homeRegion":"RO","coords":{"lat":44.4204,"lng":26.1526}},{"number":16409,"name":"Team Orange","org":"Newmancollege","rookieYear":2019,"homeRegion":"NL","coords":{"lat":51.5888,"lng":4.776}},{"number":16410,"name":"GentleBotz","org":"Newmancollege","rookieYear":2019,"homeRegion":"NL","coords":{"lat":51.5888,"lng":4.776}},{"number":16441,"name":"Pretty Smart Robotics","org":"Family/Community","rookieYear":2019,"homeRegion":"NL","coords":{"lat":53.2481,"lng":6.405}},{"number":16476,"name":"RoyalCats","org":"K\u00f6nigin-Katharina-Stift","rookieYear":2019,"homeRegion":"DE","coords":{"lat":48.7815,"lng":9.1838}},{"number":16530,"name":"Cadmes Creators","org":"Family/Community","rookieYear":2019,"homeRegion":"NL","coords":{"lat":51.6579,"lng":5.6107}},{"number":16772,"name":"Sputnik Elementary","org":"School #244","rookieYear":2019,"homeRegion":"RU","coords":{"lat":59.9387,"lng":30.3162}},{"number":16785,"name":"Team ProBotiX","org":"Pius X College","rookieYear":2019,"homeRegion":"NL","coords":{"lat":51.372,"lng":5.2318}},{"number":16788,"name":"The Encrypted Gentlemen","org":"Sondervick College","rookieYear":2019,"homeRegion":"NL","coords":{"lat":51.4041,"lng":5.383}},{"number":16850,"name":"Breul-1","org":"KSG de Breul","rookieYear":2019,"homeRegion":"NL","coords":{"lat":52.0878,"lng":5.2024}},{"number":16851,"name":"Pink Potential","org":"Maerlant-Lyceum","rookieYear":2019,"homeRegion":"NL","coords":{"lat":52.092,"lng":4.3215}},{"number":16877,"name":"KyivDynamics","org":"Specialized school #3","rookieYear":2019,"homeRegion":null,"coords":{"lat":50.4476,"lng":30.5169}},{"number":16949,"name":"Skyline","org":"Helen Parkhurst","rookieYear":2019,"homeRegion":"NL","coords":{"lat":52.3751,"lng":5.2362}},{"number":16950,"name":"Phantom","org":"GBOU School 223","rookieYear":2019,"homeRegion":"RU","coords":{"lat":59.9551,"lng":30.334}},{"number":16951,"name":"Team Rembrandts","org":"Team Rembrandts","rookieYear":2019,"homeRegion":"NL","coords":{"lat":51.4388,"lng":5.5021}},{"number":16977,"name":"Roboni Clan","org":"St. Bonifatiuscollege","rookieYear":2019,"homeRegion":"NL","coords":{"lat":52.0825,"lng":5.1363}},{"number":16978,"name":"Roboni Amadeus","org":"St. Bonifatiuscollege","rookieYear":2019,"homeRegion":"NL","coords":{"lat":52.0825,"lng":5.1363}},{"number":17021,"name":"Bot the Builder","org":"Gerrit Rietveld College","rookieYear":2019,"homeRegion":"NL","coords":{"lat":52.1113,"lng":5.1367}},{"number":17046,"name":"Cybears 1","org":"International School of Amsterdam","rookieYear":2019,"homeRegion":"NL","coords":{"lat":52.2895,"lng":4.8607}},{"number":17049,"name":"AutoVortex Voluntari","org":"Family/Community","rookieYear":2019,"homeRegion":"RO","coords":{"lat":44.4903,"lng":26.1773}},{"number":17053,"name":"AutoVortex America","org":"Family/Community","rookieYear":2019,"homeRegion":"RO","coords":{"lat":44.4903,"lng":26.1773}},{"number":17054,"name":"AutoVortex Afrika","org":"Family/Community","rookieYear":2019,"homeRegion":"RO","coords":{"lat":44.4903,"lng":26.1773}},{"number":17089,"name":"Powered by Redstone","org":"Inogami s.r.o./Open Gate \u2013 gymn\u00e1zium a z\u00e1kladn\u00ed \u0161kola, s.r.o. &Open Gate School","rookieYear":2019,"homeRegion":null,"coords":{"lat":50.0079,"lng":14.7157}},{"number":17134,"name":"Zappp","org":"Tech Playgrounds - Dynamo Youthworks","rookieYear":2019,"homeRegion":"NL","coords":{"lat":51.4393,"lng":5.4786}},{"number":17227,"name":"Roboni Ultimate","org":"St. Bonifatiuscollege","rookieYear":2019,"homeRegion":"NL","coords":{"lat":52.0825,"lng":5.1363}},{"number":17243,"name":"Vianu Legends","org":"Family/Community","rookieYear":2019,"homeRegion":"RO","coords":{"lat":44.3655,"lng":26.1169}},{"number":17258,"name":"Northgo Team","org":"Northgo Colege","rookieYear":2019,"homeRegion":"NL","coords":{"lat":52.2463,"lng":4.4533}},{"number":17259,"name":"RoboVLC","org":"Veenlandencollege","rookieYear":2019,"homeRegion":"NL","coords":{"lat":52.206,"lng":4.8648}},{"number":17420,"name":"Pobeda","org":"Middle School # 143","rookieYear":2019,"homeRegion":"RU","coords":{"lat":55.9957,"lng":92.9073}},{"number":17438,"name":"U.S.S.R. (Union of Super Smart Robots)","org":"PUBLIC SCHOOL \u2116263","rookieYear":2019,"homeRegion":"RU","coords":{"lat":59.9551,"lng":30.334}},{"number":17502,"name":"Stardust Crusader","org":"Municipal budgetary institution of continuing education  \"Education Center\" Perspective \"","rookieYear":2019,"homeRegion":"RU","coords":{"lat":56.1136,"lng":94.5893}},{"number":17504,"name":"DESTINY","org":"Secondary school #149","rookieYear":2019,"homeRegion":"RU","coords":{"lat":68.9383,"lng":96.9972}},{"number":17517,"name":"WoEN: Workshop of Eternal Nonsense","org":"\u0413\u0411\u041e\u0423 \u041f\u0440\u0435\u0437\u0438\u0434\u0435\u043d\u0442\u0441\u043a\u0438\u0439 \u0424\u041c\u041b\u2116239 ","rookieYear":2019,"homeRegion":"RU","coords":{"lat":59.9387,"lng":30.3162}},{"number":17532,"name":"FUSE","org":"Colegiul National \"Costache Negruzzi\" Iasi","rookieYear":2019,"homeRegion":"RO","coords":{"lat":47.1733,"lng":27.5694}},{"number":17579,"name":"HU-Talent Bots","org":"Hogeschool Utrecht","rookieYear":2019,"homeRegion":"NL","coords":{"lat":52.1592,"lng":5.38}},{"number":17589,"name":"INFESLA Jr.","org":"Lyceum 1, Bratsk","rookieYear":2019,"homeRegion":"RU","coords":{"lat":56.1517,"lng":101.6335}},{"number":17590,"name":"INFESLA","org":"Lyceum 1","rookieYear":2019,"homeRegion":"RU","coords":{"lat":56.2797,"lng":101.8819}},{"number":17611,"name":"Birdmachine","org":"d'Oultremontcollege.nl","rookieYear":2019,"homeRegion":"NL","coords":{"lat":51.6425,"lng":5.131}},{"number":17624,"name":"IGNITE.","org":"Colegiul National \"Mihai Viteazul\"","rookieYear":2019,"homeRegion":"RO","coords":{"lat":44.439,"lng":26.1243}},{"number":17629,"name":"Q-Bots","org":"Johannes Fontanus College","rookieYear":2019,"homeRegion":"NL","coords":{"lat":52.1493,"lng":5.5807}},{"number":17651,"name":"The Probots","org":"Dalton Lyceum Barendrecht","rookieYear":2019,"homeRegion":"NL","coords":{"lat":51.8519,"lng":4.5294}},{"number":17652,"name":"Delta","org":"Willem van Oranje College","rookieYear":2019,"homeRegion":"NL","coords":{"lat":51.6832,"lng":5.0518}},{"number":17713,"name":"Delta Force","org":"Liceul Na\u021bional de Informatic\u0103 Arad","rookieYear":2019,"homeRegion":"RO","coords":{"lat":46.1824,"lng":21.3293}},{"number":17791,"name":"Noname510","org":"LAP \u2116135 g.o. Samara","rookieYear":2019,"homeRegion":"RU","coords":{"lat":53.1976,"lng":50.0974}},{"number":17821,"name":"UK Team 1","org":"FIRST UK","rookieYear":2019,"homeRegion":"GB","coords":{"lat":51.4256,"lng":-0.3568}},{"number":17823,"name":"UK Team 2","org":"FIRST UK","rookieYear":2019,"homeRegion":"GB","coords":{"lat":51.4256,"lng":-0.3568}},{"number":17825,"name":"UK Team 5","org":"FIRST UK","rookieYear":2019,"homeRegion":"GB","coords":{"lat":51.4256,"lng":-0.3568}},{"number":17826,"name":"UK Team 3","org":"FIRST UK","rookieYear":2019,"homeRegion":"GB","coords":{"lat":51.4256,"lng":-0.3568}},{"number":17832,"name":"UK Team 4","org":"FIRST UK","rookieYear":2019,"homeRegion":"GB","coords":{"lat":51.4256,"lng":-0.3568}},{"number":17844,"name":"RUBIX","org":"COLEGIUL NATIONAL \"INOCHENTIE MICU CLAIN\"","rookieYear":2019,"homeRegion":"RO","coords":{"lat":46.1778,"lng":23.9277}},{"number":17855,"name":"Vortex Breakers","org":"Family/Community","rookieYear":2019,"homeRegion":"RO","coords":{"lat":44.3655,"lng":26.1169}},{"number":17857,"name":"Gentlemen","org":"Family/Community","rookieYear":2019,"homeRegion":"RO","coords":{"lat":44.3655,"lng":26.1169}},{"number":17861,"name":"CSH","org":"Colegiul National Pedagogic \"Carmen Sylva\" Timisoara","rookieYear":2019,"homeRegion":"RO","coords":{"lat":45.7541,"lng":21.2356}},{"number":17871,"name":"Thobor RO 068","org":"Colegiul National Calistrat Hogas","rookieYear":2019,"homeRegion":"RO","coords":{"lat":45.8465,"lng":27.4275}},{"number":17873,"name":"VECTRON","org":"National College \"Andrei Muresanu\" DEJ","rookieYear":2019,"homeRegion":"RO","coords":{"lat":47.1415,"lng":23.8785}},{"number":17875,"name":"Code Warriors","org":"Liceul Teoretic \"Stephan Ludwig Roth\"","rookieYear":2019,"homeRegion":"RO","coords":{"lat":46.1658,"lng":24.351}},{"number":17881,"name":"RiverWolves","org":"Grigore Moisil Highschool","rookieYear":2019,"homeRegion":"RO","coords":{"lat":45.1604,"lng":28.7945}},{"number":17959,"name":"CyberLions","org":"Liceul teoretic \u201cBrancoveanu Voda\u201d","rookieYear":2019,"homeRegion":"RO","coords":{"lat":44.9867,"lng":26.2342}},{"number":17962,"name":"Ro2D2","org":"National College \u201dMIHAI VITEAZUL\u201d","rookieYear":2019,"homeRegion":"RO","coords":{"lat":44.9366,"lng":26.0255}},{"number":17964,"name":"TITANS","org":"Colegiul National \"GHEORGHE LAZAR\"","rookieYear":2019,"homeRegion":"RO","coords":{"lat":44.435,"lng":26.0902}},{"number":17965,"name":"BOLTS AND GEARS","org":"COLEGIUL NATIONAL LIVIU REBREANU","rookieYear":2019,"homeRegion":"RO","coords":{"lat":47.1364,"lng":24.4946}},{"number":17976,"name":"CORE ","org":"PHYMLY","rookieYear":2019,"homeRegion":null,"coords":{"lat":49.4447,"lng":32.0588}},{"number":18026,"name":"SGBOTS","org":"LICEUL TEORETIC SOLOMON HALITA","rookieYear":2019,"homeRegion":"RO","coords":{"lat":47.3682,"lng":24.6742}},{"number":18160,"name":"4D-Robotics","org":"Colegiul Zinca Golescu & Family/Community","rookieYear":2019,"homeRegion":"RO","coords":{"lat":44.8534,"lng":24.8747}},{"number":18220,"name":"Vampires - 0001","org":"American International School of Bucharest LLC \u2013 Filiala din Romania","rookieYear":2020,"homeRegion":"RO","coords":{"lat":44.5285,"lng":26.1448}},{"number":18226,"name":"School763","org":"GBOU School \u2116763","rookieYear":2020,"homeRegion":"RU","coords":{"lat":55.7597,"lng":37.6124}},{"number":18243,"name":"Dragons","org":"Family/Community","rookieYear":2020,"homeRegion":"GB","coords":{"lat":52.3582,"lng":-0.2677}},{"number":18276,"name":"TechNoLogic RO 081","org":"Liceul Tehnologic de Electrotehnica si Telecomunicatii","rookieYear":2020,"homeRegion":"RO","coords":{"lat":44.1849,"lng":28.6345}},{"number":18330,"name":"alfa","org":"kolledg","rookieYear":2020,"homeRegion":"RU","coords":{"lat":56.206,"lng":95.7068}},{"number":18338,"name":"StarTech-RO151","org":"Colegiul Na\u021bional \"Ioan Slavici\" Satu Mare","rookieYear":2020,"homeRegion":"RO","coords":{"lat":47.797,"lng":22.8751}},{"number":18425,"name":"Ubbo Tech Team","org":"Ubbo Emmius Scholengemeenschap","rookieYear":2020,"homeRegion":"NL","coords":{"lat":53.2128,"lng":6.5661}},{"number":18475,"name":"Blinking Tech","org":"Greijdanus","rookieYear":2020,"homeRegion":"NL","coords":{"lat":52.7009,"lng":6.1889}},{"number":18521,"name":"Beau_Soleil1","org":"College Alpine Beau Soleil","rookieYear":2020,"homeRegion":null,"coords":{"lat":46.2992,"lng":7.0526}},{"number":18601,"name":"Codebusters","org":"Haags  Montessori lyceum","rookieYear":2020,"homeRegion":"NL","coords":{"lat":52.09,"lng":4.3214}},{"number":18632,"name":"Ludylab","org":"Family/Community","rookieYear":2020,"homeRegion":null,"coords":{"lat":46.9218,"lng":-0.9657}},{"number":18690,"name":"Iactate Altius","org":"Stedelijk Gymnasium Schiedam","rookieYear":2020,"homeRegion":"NL","coords":{"lat":51.93,"lng":4.3865}},{"number":18700,"name":"Iactate Altius","org":"Stedelijk Gymnasium Schiedam","rookieYear":2020,"homeRegion":"NL","coords":{"lat":51.93,"lng":4.3865}},{"number":18709,"name":"Fixies","org":"School 619","rookieYear":2020,"homeRegion":"RU","coords":{"lat":59.958,"lng":30.3157}},{"number":18710,"name":"STA1","org":"Stanislascollege Westplantsoen","rookieYear":2020,"homeRegion":"NL","coords":{"lat":52.0085,"lng":4.3453}},{"number":18722,"name":"AldeaTec","org":"Aldeatr\u00f3n Canarias","rookieYear":2020,"homeRegion":"ES","coords":{"lat":28.0992,"lng":-16.6168}},{"number":18741,"name":"Cooler Bot the Builder","org":"Gerrit Rietveldcollege","rookieYear":2020,"homeRegion":"NL","coords":{"lat":52.1113,"lng":5.1367}},{"number":18742,"name":"WoEN: Aperture In Reasons","org":"Physics and Mathematics Lyceum \u2116 239","rookieYear":2020,"homeRegion":"RU","coords":{"lat":59.9387,"lng":30.3162}},{"number":18778,"name":"Amadeus 1","org":"Amadeuslyceum","rookieYear":2020,"homeRegion":"NL","coords":{"lat":52.0907,"lng":5.1216}},{"number":18779,"name":"GROEVENBEEK1!","org":"Christelijk College Groevenbeek","rookieYear":2020,"homeRegion":"NL","coords":{"lat":52.2892,"lng":5.6212}},{"number":18782,"name":"Tech Cintegra  ","org":"Family/Community","rookieYear":2020,"homeRegion":"ES","coords":{"lat":28.4858,"lng":-16.3159}},{"number":18859,"name":"Stanislas Tech Team","org":"Stanislascollege Westplantsoen","rookieYear":2020,"homeRegion":"NL","coords":{"lat":52.0085,"lng":4.3453}},{"number":18864,"name":"The Midnight Development Team","org":"Gymnasium No. 1 named after Inozemtsev","rookieYear":2020,"homeRegion":"RU","coords":{"lat":56.1517,"lng":101.6335}},{"number":18889,"name":"UK 063 Team Snapwire","org":"Perton Middle School","rookieYear":2020,"homeRegion":"GB","coords":{"lat":52.5852,"lng":-2.1505}},{"number":18899,"name":"HighSkill","org":"\u0427\u0430\u0441\u0442\u043d\u043e\u0435 \u043e\u0431\u0449\u0435\u043e\u0431\u0440\u0430\u0437\u043e\u0432\u0430\u0442\u0435\u043b\u044c\u043d\u043e\u0435 \u0443\u0447\u0440\u0435\u0436\u0434\u0435\u043d\u0438\u0435 \u0448\u043a\u043e\u043b\u0430 \u00ab\u041b\u0435\u043a\u0441\u0438\u0441\u00bb","rookieYear":2020,"homeRegion":"RU","coords":{"lat":55.908,"lng":38.1447}},{"number":18903,"name":"Adeptus Terra","org":" Municipal budgetary institution of additional education  \"Education Center\" Perspective \"","rookieYear":2020,"homeRegion":"RU","coords":{"lat":56.1136,"lng":94.5893}},{"number":18910,"name":"Evacuation plan","org":"MAEI \"KUG \u21161 - Univers\"","rookieYear":2020,"homeRegion":"RU","coords":{"lat":53.5206,"lng":95.7447}},{"number":18915,"name":"Boiko School Tech","org":"Private Boiko School","rookieYear":2020,"homeRegion":null,"coords":{"lat":50.0185,"lng":36.224}},{"number":18916,"name":"Cyber Team Doorn","org":"Revius Lyceum Doorn","rookieYear":2020,"homeRegion":"NL","coords":{"lat":52.0372,"lng":5.3252}},{"number":18917,"name":"EAG","org":"Ernst-Abbe-Gymnasium","rookieYear":2020,"homeRegion":"DE","coords":{"lat":48.7885,"lng":10.114}},{"number":18918,"name":"Phantoms","org":"International School of Kazan","rookieYear":2020,"homeRegion":"RU","coords":{"lat":55.8018,"lng":49.1178}},{"number":18957,"name":"Zandvliet FTC","org":"Christelijk Lyceum Zandvliet","rookieYear":2020,"homeRegion":"NL","coords":{"lat":52.0852,"lng":4.3293}},{"number":18982,"name":"EXP","org":"Lyceum \u21162","rookieYear":2020,"homeRegion":"RU","coords":{"lat":56.307,"lng":101.7399}},{"number":19043,"name":"CyLiis","org":"Liceul Teoretic de Informatica Grigore Moisil Iasi","rookieYear":2020,"homeRegion":"RO","coords":{"lat":47.1854,"lng":27.5666}},{"number":19044,"name":"CyLiis Peppers","org":"Liceul Teoretic de Informatica Grigore Moisil Iasi","rookieYear":2020,"homeRegion":"RO","coords":{"lat":47.1854,"lng":27.5666}},{"number":19047,"name":"RobotY_HD","org":"Liceul Teoretic Traian Lalescu","rookieYear":2020,"homeRegion":"RO","coords":{"lat":45.8647,"lng":22.9013}},{"number":19048,"name":"ROBOPAPIU","org":"Colegiul National \"Alexandru Papiu Ilarian\" Targu-Mures","rookieYear":2020,"homeRegion":"RO","coords":{"lat":46.5405,"lng":24.5744}},{"number":19049,"name":"HighFive Robotics","org":"\"Ion C. Bratianu\" National College","rookieYear":2020,"homeRegion":"RO","coords":{"lat":44.8575,"lng":24.868}},{"number":19051,"name":"North East Dynamics","org":"Liceul Regina Maria Dorohoi","rookieYear":2020,"homeRegion":"RO","coords":{"lat":47.9403,"lng":26.4067}},{"number":19052,"name":"Trojan.EXE","org":"Liceul Teoretic \"Ana Ipatescu\"","rookieYear":2020,"homeRegion":"RO","coords":{"lat":47.0268,"lng":23.9042}},{"number":19053,"name":"Homosapiens","org":"Colegiul Na\u021bional \u201eBogdan Petriceicu Hasdeu\u201d","rookieYear":2020,"homeRegion":"RO","coords":{"lat":45.1485,"lng":26.8257}},{"number":19054,"name":"NeuroBotix","org":"Colegiul National \"Mihai Viteazul\"","rookieYear":2020,"homeRegion":"RO","coords":{"lat":44.439,"lng":26.1243}},{"number":19055,"name":"TITANS","org":"Colegiul National \"Gheorghe Lazar\"","rookieYear":2020,"homeRegion":"RO","coords":{"lat":44.435,"lng":26.0902}},{"number":19056,"name":"PrimeTech","org":"Liceul de Informatic\u0103 \"Tiberiu Popoviciu\"","rookieYear":2020,"homeRegion":"RO","coords":{"lat":46.7539,"lng":23.5948}},{"number":19057,"name":"Adrenaline","org":"\u041c\u0411\u041e\u0423 \u0421\u041e\u0428 \u211650","rookieYear":2020,"homeRegion":"RU","coords":{"lat":55.974,"lng":47.0776}},{"number":19058,"name":"RO061 MODUS VIVENDI","org":"Colegiul National \"Mihai Eminescu\" Oradea","rookieYear":2020,"homeRegion":"RO","coords":{"lat":47.0606,"lng":21.9305}},{"number":19059,"name":"ArtRobotix","org":"Liceul de Arte \"Ionel Perlea\" Slobozia","rookieYear":2020,"homeRegion":"RO","coords":{"lat":44.5641,"lng":27.3765}},{"number":19060,"name":"InfinityEdge","org":"Colegiul National Unirea","rookieYear":2020,"homeRegion":"RO","coords":{"lat":45.6979,"lng":27.1914}},{"number":19061,"name":"Boogeybots","org":"COLEGIUL NATIONAL \"ALEXANDRU VLAHUTA\"","rookieYear":2020,"homeRegion":"RO","coords":{"lat":45.3777,"lng":27.0476}},{"number":19062,"name":"Phantom Robotics","org":"Constantin Carabella National College","rookieYear":2020,"homeRegion":"RO","coords":{"lat":44.9295,"lng":25.4521}},{"number":19063,"name":"UnderConstruction Targoviste","org":"Constantin Carabella National College","rookieYear":2020,"homeRegion":"RO","coords":{"lat":44.9295,"lng":25.4521}},{"number":19064,"name":"Dragonic Force","org":"Liceul Teoretic Nicolae Balcescu","rookieYear":2020,"homeRegion":"RO","coords":{"lat":44.3869,"lng":28.3712}},{"number":19065,"name":"Inorog Team RO 152","org":"Colegiul National \"Gheorghe Rosca Codreanu\" Barlad","rookieYear":2020,"homeRegion":"RO","coords":{"lat":46.2264,"lng":27.6649}},{"number":19066,"name":"AICitizensRO160","org":"Colegiul National \"Alexandru Ioan Cuza\"","rookieYear":2020,"homeRegion":"RO","coords":{"lat":45.7029,"lng":27.19}},{"number":19067,"name":"BIONIC ROYALS","org":"Colegiul National Mircea cel Batran","rookieYear":2020,"homeRegion":"RO","coords":{"lat":45.1087,"lng":24.3621}},{"number":19068,"name":"ABSO-TECH","org":"LICEUL TEORETIC PETRU MAIOR","rookieYear":2020,"homeRegion":"RO","coords":{"lat":46.389,"lng":23.847}},{"number":19070,"name":"QUARTZ Robotics Romania","org":"Spiru Haret School of Arts and Crafts","rookieYear":2020,"homeRegion":"RO","coords":{"lat":47.1616,"lng":27.5838}},{"number":19071,"name":"Echo Pulse","org":"Colegiul National \"Ferdinand I\" ","rookieYear":2020,"homeRegion":"RO","coords":{"lat":46.5694,"lng":26.9059}},{"number":19072,"name":"TehnoZ Junior","org":"Colegiul National \u201dZinca Golescu\u201d Pitesti","rookieYear":2020,"homeRegion":"RO","coords":{"lat":44.8534,"lng":24.8747}},{"number":19073,"name":"The Emperor RO124","org":"Colegiul National \"Traian\"","rookieYear":2020,"homeRegion":"RO","coords":{"lat":44.6237,"lng":22.6601}},{"number":19074,"name":"Extropy","org":"Liceul Teoretic \"Pavel Dan\"","rookieYear":2020,"homeRegion":"RO","coords":{"lat":46.5439,"lng":23.8746}},{"number":19075,"name":"Clockworks","org":"Colegiul National Gheorghe Sincai","rookieYear":2020,"homeRegion":"RO","coords":{"lat":44.4144,"lng":26.1052}},{"number":19076,"name":"RoboticsTrav","org":"Liceul Traian Vuia Craiova","rookieYear":2020,"homeRegion":"RO","coords":{"lat":44.2963,"lng":23.8303}},{"number":19077,"name":"Robocadet","org":"COLEGIUL NATIONAL MILITAR \"TUDOR VLADIMIRESCU\" CRAIOVA","rookieYear":2020,"homeRegion":"RO","coords":{"lat":44.3208,"lng":23.8145}},{"number":19078,"name":"Biytes","org":"Colegiul National Octavian Goga ","rookieYear":2020,"homeRegion":"RO","coords":{"lat":45.7937,"lng":24.1454}},{"number":19079,"name":"PHOENIX RO026","org":"Avram Iancu High School ","rookieYear":2020,"homeRegion":"RO","coords":{"lat":46.7662,"lng":23.5885}},{"number":19080,"name":"Phoenix RO026","org":"Avram Iancu Highschool","rookieYear":2020,"homeRegion":"RO","coords":{"lat":46.7862,"lng":23.685}},{"number":19081,"name":"Bots' Brain","org":"Liceul Teoretic \"Independen\u021ba\"","rookieYear":2020,"homeRegion":"RO","coords":{"lat":43.9968,"lng":22.9347}},{"number":19082,"name":"RoboAS","org":"Colegiul National \u201eAndrei Saguna\u201d Brasov","rookieYear":2020,"homeRegion":"RO","coords":{"lat":45.6383,"lng":25.584}},{"number":19083,"name":"North East Dynamics","org":"Home School","rookieYear":2020,"homeRegion":"RO","coords":{"lat":47.9538,"lng":26.397}},{"number":19084,"name":"S0vaTech","org":"''Grigore Moisil' National College","rookieYear":2020,"homeRegion":"RO","coords":{"lat":44.4413,"lng":26.0909}},{"number":19085,"name":"IDeaL Electronics","org":"Colegiul Tehnic Ion D Lazarescu","rookieYear":2020,"homeRegion":"RO","coords":{"lat":45.8406,"lng":23.3643}},{"number":19086,"name":"Robocorns RO004","org":"Colegiul Na\u021bional \"Vasile Lucaciu\" Baia Mare ","rookieYear":2020,"homeRegion":"RO","coords":{"lat":47.6579,"lng":23.5691}},{"number":19087,"name":"RO154","org":"Miron Costin High School","rookieYear":2020,"homeRegion":"RO","coords":{"lat":47.2559,"lng":26.7216}},{"number":19088,"name":"BROBOTS","org":"COLEGIUL NATIONAL \"ALEXANDRU LAHOVARI\"","rookieYear":2020,"homeRegion":"RO","coords":{"lat":45.1084,"lng":24.3643}},{"number":19090,"name":"TEHROCUZ RO 067","org":"LICEUL TEHNOLOGIC \"ALEXANDRU IOAN CUZA\"","rookieYear":2020,"homeRegion":"RO","coords":{"lat":44.5701,"lng":27.3596}},{"number":19091,"name":"The Resistance","org":"Liceul Teoretic \"Stephan Ludwig Roth\"","rookieYear":2020,"homeRegion":"RO","coords":{"lat":46.1658,"lng":24.351}},{"number":19092,"name":"ICLASS ","org":"Liceul Tehnologic ,,Costache Conachi\" ","rookieYear":2020,"homeRegion":"RO","coords":{"lat":45.8469,"lng":27.4267}},{"number":19093,"name":"Infinity Bolts ","org":"Liceul National de Informatica Arad ","rookieYear":2020,"homeRegion":"RO","coords":{"lat":46.1824,"lng":21.3293}},{"number":19094,"name":"WizzTech RO048","org":"Liceul Teoretic Grigore Moisil Timisoara","rookieYear":2020,"homeRegion":"RO","coords":{"lat":45.7416,"lng":21.227}},{"number":19095,"name":"WireImpulse","org":"Colegiul National Vasile Goldis Arad","rookieYear":2020,"homeRegion":"RO","coords":{"lat":46.1846,"lng":21.309}},{"number":19096,"name":"DanubeRobotics","org":"Colegiul National \"Barbu Stirbei\"","rookieYear":2020,"homeRegion":"RO","coords":{"lat":44.2324,"lng":27.1898}},{"number":19097,"name":"Quasar.Robotics","org":"COLEGIUL NATIONAL 'CUZA VODA\" HUSI","rookieYear":2020,"homeRegion":"RO","coords":{"lat":46.6749,"lng":28.0573}},{"number":19098,"name":"infO1 Technologies","org":"Colegiu National \" Ion Luca Caragiale\"","rookieYear":2020,"homeRegion":"RO","coords":{"lat":44.945,"lng":26.0265}},{"number":19099,"name":"H-Tech","org":"Colegiul National Ion Creanga Bucuresti ","rookieYear":2020,"homeRegion":"RO","coords":{"lat":44.4236,"lng":26.1064}},{"number":19100,"name":"Future Tech","org":"Liceul Teoretic \u201eIon Luca\u201d & Clubul Copiilor Vatra Dornei","rookieYear":2020,"homeRegion":"RO","coords":{"lat":47.3478,"lng":25.3567}},{"number":19101,"name":"Tech-X","org":"Colegiul National \u201dDragos Voda\u201d","rookieYear":2020,"homeRegion":"RO","coords":{"lat":47.9308,"lng":23.887}},{"number":19102,"name":"TheArchitechs","org":"Colegiul Na\u021bional \"Emil Racovi\u021b\u0103\" Cluj-Napoca","rookieYear":2020,"homeRegion":"RO","coords":{"lat":46.7682,"lng":23.594}},{"number":19103,"name":"Kronbot","org":"Colegiul Na\u021bional de Informatic\u0103 \u201eGrigore Moisil\u201d Bra\u0219ov","rookieYear":2020,"homeRegion":"RO","coords":{"lat":45.6441,"lng":25.6244}},{"number":19104,"name":"CyberPunk Robotics","org":"Colegiul National \"Mihai Viteazul\" Turda","rookieYear":2020,"homeRegion":"RO","coords":{"lat":46.575,"lng":23.7777}},{"number":19105,"name":"DecebalTech","org":"Colegiul Na\u021bional \u201eDecebal\u201d","rookieYear":2020,"homeRegion":"RO","coords":{"lat":45.8836,"lng":22.902}},{"number":19106,"name":"Dark Energy","org":"Colegiul Na\u021bional \u201eDecebal\u201d","rookieYear":2020,"homeRegion":"RO","coords":{"lat":45.8836,"lng":22.902}},{"number":19107,"name":"Fuse Robotics","org":"Colegiul National Costache Negruzzi Iasi","rookieYear":2020,"homeRegion":"RO","coords":{"lat":47.1733,"lng":27.5694}},{"number":19108,"name":"Alphatronic","org":"Transylvania College","rookieYear":2020,"homeRegion":"RO","coords":{"lat":46.7641,"lng":23.6248}},{"number":19109,"name":"RaSky","org":"National College Elena Cuza","rookieYear":2020,"homeRegion":"RO","coords":{"lat":44.3191,"lng":23.7992}},{"number":19110,"name":"R0B0SMART","org":"Colegiul National Ion Minulescu Slatina","rookieYear":2020,"homeRegion":"RO","coords":{"lat":44.4248,"lng":24.3628}},{"number":19111,"name":"TITUR0B0","org":"Liceul Teoretic Nicolae Titulescu Slatina","rookieYear":2020,"homeRegion":"RO","coords":{"lat":44.4289,"lng":24.3713}},{"number":19112,"name":"RO112 UNDEFINED","org":"Colegiul National Nicolae Grigorescu ","rookieYear":2020,"homeRegion":"RO","coords":{"lat":45.1262,"lng":25.7344}},{"number":19113,"name":"Herotech","org":"\"Octavian Goga\" National College Sibiu","rookieYear":2020,"homeRegion":"RO","coords":{"lat":45.7833,"lng":24.1438}},{"number":19115,"name":"B-RoboTeam RO 064","org":"Liceul Tehnologic Ion I.C. Bratianu","rookieYear":2020,"homeRegion":"RO","coords":{"lat":47.7926,"lng":22.8786}},{"number":19116,"name":"VV Robots","org":"Colegiul Na\u021bional Vlaicu Vod\u0103","rookieYear":2020,"homeRegion":"RO","coords":{"lat":45.1335,"lng":24.6768}},{"number":19117,"name":"Robo-Sapiens","org":"Colegiul National \"Spiru Haret\" Bucuresti","rookieYear":2020,"homeRegion":"RO","coords":{"lat":44.4381,"lng":26.1071}},{"number":19119,"name":"InfotronX","org":"Colegiul Tehnic \"INFOEL\"","rookieYear":2020,"homeRegion":"RO","coords":{"lat":47.1434,"lng":24.5101}},{"number":19120,"name":"AlphaBit","org":"Colegiul National Mihai Eminescu Petrosani","rookieYear":2020,"homeRegion":"RO","coords":{"lat":45.4201,"lng":23.3729}},{"number":19121,"name":"Tea Borgs","org":"Colegiul Na\u021bional Tudor Vladimirescu","rookieYear":2020,"homeRegion":"RO","coords":{"lat":45.0374,"lng":23.2738}},{"number":19126,"name":"SkyLine","org":"Liceul Tehnologic Petrol","rookieYear":2020,"homeRegion":"RO","coords":{"lat":44.9739,"lng":25.6484}},{"number":19128,"name":"RoboDac Dacia","org":"Dacia Pitesti Technological High School","rookieYear":2020,"homeRegion":"RO","coords":{"lat":44.8573,"lng":24.8721}},{"number":19130,"name":"RoboDac Dacia","org":"Home School","rookieYear":2020,"homeRegion":"RO","coords":{"lat":44.8596,"lng":24.8681}},{"number":19131,"name":"Evolution","org":"Colegiul National Mihai Viteazul","rookieYear":2020,"homeRegion":"RO","coords":{"lat":44.564,"lng":27.3541}},{"number":19134,"name":"Rodac","org":"Liceul Teoretic Panait Cerna","rookieYear":2020,"homeRegion":"RO","coords":{"lat":45.2705,"lng":27.9555}},{"number":19139,"name":"Snake-Tech40","org":"Colegiul National \"Petru Rares\"","rookieYear":2020,"homeRegion":"RO","coords":{"lat":46.933,"lng":26.371}},{"number":19141,"name":"BraveBots","org":"Colegiul National \"Mihai Viteazul\"","rookieYear":2020,"homeRegion":"RO","coords":{"lat":44.9366,"lng":26.0255}},{"number":19143,"name":"HELIX_RO","org":"Panait Istrati","rookieYear":2020,"homeRegion":"RO","coords":{"lat":45.283,"lng":27.634}},{"number":19147,"name":"Blizzard Eye","org":"Colegiul National \"Stefan cel Mare\"","rookieYear":2020,"homeRegion":"RO","coords":{"lat":46.9847,"lng":26.5178}},{"number":19148,"name":"StefTech","org":"Colegiul National Militar \u201e\u0218tefan cel Mare\u201d","rookieYear":2020,"homeRegion":"RO","coords":{"lat":47.5081,"lng":25.6109}},{"number":19151,"name":"TECHNO-MAISTER","org":"Liceul Teoretic \"Iulia Zamfirescu\"","rookieYear":2020,"homeRegion":"RO","coords":{"lat":44.9616,"lng":24.9481}},{"number":19152,"name":"Brainstorms","org":"Colegiul Tehnic \"Alesandru Papiu Ilarian\"","rookieYear":2020,"homeRegion":"RO","coords":{"lat":47.1881,"lng":23.0571}},{"number":19155,"name":"Pingu","org":"The Anglo-American School of Moscow","rookieYear":2020,"homeRegion":"RU","coords":{"lat":55.7597,"lng":37.6124}},{"number":19176,"name":"Broboti","org":"Colegiul National Ion C. Bratianu","rookieYear":2020,"homeRegion":"RO","coords":{"lat":44.8575,"lng":24.868}},{"number":19211,"name":"VirtualWolvesRO165","org":"Liceul Teoretic \" Mihai Eminescu \" Barlad","rookieYear":2020,"homeRegion":"RO","coords":{"lat":46.2101,"lng":27.6481}},{"number":19212,"name":"NATIE PRIN EDUCATIE Assoc","org":"Home School","rookieYear":2020,"homeRegion":"RO","coords":{"lat":44.4787,"lng":26.1037}},{"number":19224,"name":"HiKOL","org":"Family/Community","rookieYear":2020,"homeRegion":null,"coords":{"lat":50.4668,"lng":30.6029}},{"number":19230,"name":"StefTech","org":"Colegiul National Militar Stefan cel Mare","rookieYear":2020,"homeRegion":"RO","coords":{"lat":47.5081,"lng":25.6109}},{"number":19233,"name":"TEAMART 1","org":"Family/Community","rookieYear":2020,"homeRegion":"RO","coords":{"lat":44.3655,"lng":26.1169}},{"number":19234,"name":"BYTE FORCE RO037","org":"Colegiul National \"Vasile Alecsandri\"","rookieYear":2020,"homeRegion":"RO","coords":{"lat":45.4406,"lng":28.0521}},{"number":19235,"name":"vvvv","org":".,.,.,.","rookieYear":2020,"homeRegion":"RO","coords":{"lat":44.473,"lng":26.0657}},{"number":19242,"name":"RO169 RoboPeda","org":"Liceul Voca\u021bional Pedagogic Nicolae Bolca\u0219","rookieYear":2020,"homeRegion":"RO","coords":{"lat":46.6706,"lng":22.3463}},{"number":19246,"name":"Cybersouls","org":"Colegiul Na\u021bional \u201dGeorge Co\u0219buc\u201d N\u0103s\u0103ud","rookieYear":2020,"homeRegion":"RO","coords":{"lat":47.2844,"lng":24.4039}},{"number":19249,"name":"1UK","org":"Family/Community","rookieYear":2020,"homeRegion":"GB","coords":{"lat":51.6242,"lng":-0.3408}},{"number":19252,"name":"Vladimir","org":"\u041c\u0443\u043d\u0438\u0446\u0438\u043f\u0430\u043b\u044c\u043d\u043e\u0435 \u0431\u044e\u0434\u0436\u0435\u0442\u043d\u043e\u0435 \u043e\u0431\u0449\u0435\u043e\u0431\u0440\u0430\u0437\u043e\u0432\u0430\u0442\u0435\u043b\u044c\u043d\u043e\u0435 \u0443\u0447\u0440\u0435\u0436\u0434\u0435\u043d\u0438\u0435 \u041b\u0438\u0446\u0435\u0439 \u211610","rookieYear":2020,"homeRegion":"RU","coords":{"lat":60.7115,"lng":42.5903}},{"number":19256,"name":"CYBERMOON093","org":"Colegiul National Constantin Diaconovici Loga Timisoara","rookieYear":2020,"homeRegion":"RO","coords":{"lat":45.753,"lng":21.2343}},{"number":19257,"name":"UNplugged188","org":"Liceul Teoretic Nikolaus Lenau","rookieYear":2020,"homeRegion":"RO","coords":{"lat":45.7579,"lng":21.2271}},{"number":19258,"name":"RO175","org":"Colegiul National Dragos-Vod\u0103","rookieYear":2020,"homeRegion":"RO","coords":{"lat":47.9308,"lng":23.887}},{"number":19259,"name":"Brighton College","org":"FIRST UK & Brighton College","rookieYear":2020,"homeRegion":"GB","coords":{"lat":50.8218,"lng":-0.1211}},{"number":19260,"name":"Nonsuch High School for Girls","org":"Nonsuch High School for Girls","rookieYear":2020,"homeRegion":"GB","coords":{"lat":51.3543,"lng":-0.2248}},{"number":19261,"name":"Ferndown 1","org":"Ferndown Upper School","rookieYear":2020,"homeRegion":"GB","coords":{"lat":50.8062,"lng":-1.9033}},{"number":19262,"name":"Ferndown 2","org":"Ferndown Upper School","rookieYear":2020,"homeRegion":"GB","coords":{"lat":50.8062,"lng":-1.9033}},{"number":19263,"name":"Ferndown 3","org":"Ferndown Upper School","rookieYear":2020,"homeRegion":"GB","coords":{"lat":50.8062,"lng":-1.9033}},{"number":19264,"name":"Ferndown 4","org":"Ferndown Upper School","rookieYear":2020,"homeRegion":"GB","coords":{"lat":50.8062,"lng":-1.9033}},{"number":19265,"name":"Saint John Bosco","org":"Saint John Bosco College","rookieYear":2020,"homeRegion":"GB","coords":{"lat":51.4748,"lng":-0.1716}},{"number":19266,"name":"Fulham Boys School","org":"The Fulham Boys School","rookieYear":2020,"homeRegion":"GB","coords":{"lat":51.4794,"lng":-0.2}},{"number":19267,"name":"Trumpington Community College","org":"Trumpington Community College","rookieYear":2020,"homeRegion":"GB","coords":{"lat":52.1761,"lng":0.1237}},{"number":19268,"name":"Calday Grange Grammar","org":"Calday Grange Grammar School","rookieYear":2020,"homeRegion":"GB","coords":{"lat":53.3681,"lng":-3.1626}},{"number":19269,"name":"Bishop Perowne","org":"Bishop Perowne C of E College","rookieYear":2020,"homeRegion":"GB","coords":{"lat":52.2063,"lng":-2.2165}},{"number":19270,"name":"Calderstones","org":"Calderstones School","rookieYear":2020,"homeRegion":"GB","coords":{"lat":53.3827,"lng":-2.9016}},{"number":19271,"name":"Priestley College","org":"Priestley College","rookieYear":2020,"homeRegion":"GB","coords":{"lat":53.3793,"lng":-2.583}},{"number":19272,"name":"De Ferrers Academy","org":"De Ferrers Academy","rookieYear":2020,"homeRegion":"GB","coords":{"lat":52.8298,"lng":-1.6404}},{"number":19273,"name":"Outwood Academy Newbold","org":"Outwood Academy Newbold","rookieYear":2020,"homeRegion":"GB","coords":{"lat":53.2525,"lng":-1.4387}},{"number":19274,"name":"St Patrick's College","org":"St Patrick's College","rookieYear":2020,"homeRegion":"GB","coords":{"lat":54.5097,"lng":-6.7544}},{"number":19275,"name":"Lycee International de Valbonne 1","org":"Lycee International de Valbonne","rookieYear":2020,"homeRegion":"GB","coords":{"lat":51.5662,"lng":-0.2737}},{"number":19277,"name":"Lycee International de Valbonne","org":"Lycee International de Valbonne & Family/Community","rookieYear":2020,"homeRegion":"GB","coords":{"lat":52.2055,"lng":0.1187}},{"number":19278,"name":"Binary Bots","org":"Family/Community","rookieYear":2020,"homeRegion":"GB","coords":{"lat":51.6242,"lng":-0.3408}},{"number":19279,"name":"American School in London 1","org":"American School in London","rookieYear":2020,"homeRegion":"GB","coords":{"lat":51.5348,"lng":-0.1766}},{"number":19280,"name":"American School in London","org":"American School in London","rookieYear":2020,"homeRegion":"GB","coords":{"lat":51.5348,"lng":-0.1766}},{"number":19281,"name":"American School in London","org":"American School in London","rookieYear":2020,"homeRegion":"GB","coords":{"lat":51.5348,"lng":-0.1766}},{"number":19282,"name":"American School in London","org":"American School in London","rookieYear":2020,"homeRegion":"GB","coords":{"lat":51.5348,"lng":-0.1766}},{"number":19283,"name":"American School in London","org":"American School in London","rookieYear":2020,"homeRegion":"GB","coords":{"lat":51.5348,"lng":-0.1766}},{"number":19284,"name":"American School in London","org":"American School in London","rookieYear":2020,"homeRegion":"GB","coords":{"lat":51.5348,"lng":-0.1766}},{"number":19289,"name":"VV Robots Lego","org":"COLEGIUL NATIONAL VLAICU VOD\u0102 / SCOALA GIMNAZIALA ARMAND C\u0102LINESCU","rookieYear":2020,"homeRegion":"RO","coords":{"lat":45.1339,"lng":24.6764}},{"number":19292,"name":"TeamPhoenix","org":"Colegiul Tehnic ION MINCU","rookieYear":2020,"homeRegion":"RO","coords":{"lat":45.052,"lng":23.28}},{"number":19293,"name":"Fourth Dimension","org":"August-Hermann-Francke Gymnasium/BK","rookieYear":2020,"homeRegion":"DE","coords":{"lat":51.9467,"lng":8.8961}},{"number":19325,"name":"FUSE JR","org":"Colegiul Na\u021bional Ia\u015fi","rookieYear":2020,"homeRegion":"RO","coords":{"lat":47.1665,"lng":27.5779}},{"number":19335,"name":"Lycee Team 2","org":"Family/Community","rookieYear":2020,"homeRegion":"GB","coords":{"lat":52.3333,"lng":0.0833}},{"number":19342,"name":"Clever Core","org":"Colegiul National \"Gheorghe Sincai\"","rookieYear":2020,"homeRegion":"RO","coords":{"lat":47.6573,"lng":23.5772}}],"events":[{"code":"CYACFDLA","name":"Cyprus Dean's List Interview Only Event","typeName":"Other","venue":"N/A","dateStart":"2021-02-01T00:00:00","dateEnd":"2021-02-01T00:00:00","regionCode":"CY","coords":{"lat":44.81,"lng":44.81}},{"code":"DEBWDLA","name":"Kaiserslautern Invitational - Dean's List","typeName":"Other","venue":"N/A","dateStart":"2021-04-01T00:00:00","dateEnd":"2021-04-01T00:00:00","regionCode":"DE","coords":{"lat":44.81,"lng":44.81}},{"code":"ESAADLA","name":"Spain Dean's List Interview Only Event","typeName":"Other","venue":"N/A","dateStart":"2021-02-01T00:00:00","dateEnd":"2021-02-01T00:00:00","regionCode":"ES","coords":{"lat":44.81,"lng":44.81}},{"code":"GBELDLA","name":"UK Dean's List Interview Only Event","typeName":"Other","venue":"N/A","dateStart":"2021-02-01T00:00:00","dateEnd":"2021-02-01T00:00:00","regionCode":"GB","coords":{"lat":44.81,"lng":44.81}},{"code":"GBENGLOQT1","name":"UK FTC Qualifying Tournament Event #1 REMOTE","typeName":"Qualifier","venue":"Remote Event for FIRST UK","dateStart":"2021-05-31T00:00:00","dateEnd":"2021-06-06T00:00:00","regionCode":"GB","coords":{"lat":44.81,"lng":44.81}},{"code":"GBENGLOQT2","name":"UK FTC Qualifying Tournament Event #2 REMOTE","typeName":"Qualifier","venue":"Remote Event for FIRST UK","dateStart":"2021-06-14T00:00:00","dateEnd":"2021-06-20T00:00:00","regionCode":"GB","coords":{"lat":44.81,"lng":44.81}},{"code":"GBENGLOQT3","name":"UK FTC Qualifying Tournament Event #3 REMOTE","typeName":"Qualifier","venue":"Remote Event for FIRST UK","dateStart":"2021-06-28T00:00:00","dateEnd":"2021-07-04T00:00:00","regionCode":"GB","coords":{"lat":44.81,"lng":44.81}},{"code":"NLLMDLA","name":"Netherlands Dean's List Interview Only Event","typeName":"Other","venue":"N/A","dateStart":"2021-02-01T00:00:00","dateEnd":"2021-02-01T00:00:00","regionCode":"NL","coords":{"lat":44.81,"lng":44.81}},{"code":"NLNBBRM3","name":"League Meet Breda #3  REMOTE","typeName":"League Meet","venue":"Please see website for details ","dateStart":"2021-04-10T00:00:00","dateEnd":"2021-04-10T00:00:00","regionCode":"NL","coords":{"lat":44.81,"lng":44.81}},{"code":"NLNBEIM2","name":"League Meet Eindhoven #2  REMOTE","typeName":"League Meet","venue":"Remote Event","dateStart":"2021-03-20T00:00:00","dateEnd":"2021-03-20T00:00:00","regionCode":"NL","coords":{"lat":44.81,"lng":44.81}},{"code":"NLNBVECT1","name":"Netherlands Championship REMOTE","typeName":"Championship","venue":"Please see website for details","dateStart":"2021-06-05T00:00:00","dateEnd":"2021-06-05T00:00:00","regionCode":"NL","coords":{"lat":44.81,"lng":44.81}},{"code":"NLUTUTM4","name":"League Meet Utrecht #4  REMOTE","typeName":"League Meet","venue":"Please see website for details ","dateStart":"2021-04-17T00:00:00","dateEnd":"2021-04-17T00:00:00","regionCode":"NL","coords":{"lat":44.81,"lng":44.81}},{"code":"NLVEOS1","name":"Netherlands Sondervick College Scrimmage","typeName":"Off-Season","venue":"Sondervick College","dateStart":"2021-09-09T00:00:00","dateEnd":"2021-09-09T00:00:00","regionCode":"NL","coords":{"lat":44.81,"lng":44.81}},{"code":"NLZHDHM1","name":"League Meet Den Hague #1 REMOTE","typeName":"League Meet","venue":"Remote Event","dateStart":"2021-03-20T00:00:00","dateEnd":"2021-03-20T00:00:00","regionCode":"NL","coords":{"lat":44.81,"lng":44.81}},{"code":"ROABBUQT1","name":"RO FTC Bucharest Qualifying Tournament #1 REMOTE","typeName":"Qualifier","venue":"Remote Event","dateStart":"2021-04-13T00:00:00","dateEnd":"2021-04-19T00:00:00","regionCode":"RO","coords":{"lat":44.81,"lng":44.81}},{"code":"ROABBUQT2","name":"RO FTC CLUJ Qualifying Tournament #2 REMOTE","typeName":"Qualifier","venue":"Remote Event","dateStart":"2021-05-11T00:00:00","dateEnd":"2021-05-17T00:00:00","regionCode":"RO","coords":{"lat":44.81,"lng":44.81}},{"code":"ROABBUQT3","name":"RO FTC IASI  Qualifying Tournament #3 REMOTE","typeName":"Qualifier","venue":"Remote Event","dateStart":"2021-05-25T00:00:00","dateEnd":"2021-05-31T00:00:00","regionCode":"RO","coords":{"lat":44.81,"lng":44.81}},{"code":"ROABBUQT4","name":"RO FTC TIMISOARA Qualifying Tournament #4 REMOTE","typeName":"Qualifier","venue":"Remote Event","dateStart":"2021-06-08T00:00:00","dateEnd":"2021-06-14T00:00:00","regionCode":"RO","coords":{"lat":44.81,"lng":44.81}},{"code":"ROABBUS1","name":"RO FTC Quantum Robotics Demo Scrimmage REMOTE","typeName":"Scrimmage","venue":"Remote Event","dateStart":"2021-02-02T00:00:00","dateEnd":"2021-02-05T00:00:00","regionCode":"RO","coords":{"lat":44.81,"lng":44.81}},{"code":"ROABHUS1","name":"RO FTC Hunedoara Demo Scrimmage REMOTE","typeName":"Scrimmage","venue":"Remote Event","dateStart":"2021-04-06T00:00:00","dateEnd":"2021-04-08T00:00:00","regionCode":"RO","coords":{"lat":44.81,"lng":44.81}},{"code":"ROABRVS1","name":"RO FTC Bionic Royals DEMO Scrimmage REMOTE","typeName":"Scrimmage","venue":"Remote Event","dateStart":"2021-02-13T00:00:00","dateEnd":"2021-02-14T00:00:00","regionCode":"RO","coords":{"lat":44.81,"lng":44.81}},{"code":"ROABTUS1","name":"RO FTC DEMOPUNK III Scrimmage REMOTE","typeName":"Scrimmage","venue":"Remote Event","dateStart":"2021-02-14T00:00:00","dateEnd":"2021-02-20T00:00:00","regionCode":"RO","coords":{"lat":44.81,"lng":44.81}},{"code":"ROALALS1","name":"RO FTC TXS-The Xeo Scrimmage REMOTE","typeName":"Scrimmage","venue":"Remote Event","dateStart":"2021-05-06T00:00:00","dateEnd":"2021-05-08T00:00:00","regionCode":"RO","coords":{"lat":44.81,"lng":44.81}},{"code":"ROALBLS1","name":"RO FTC RUBIX DEMO 3.0 Scrimmage REMOTE","typeName":"Scrimmage","venue":"Remote Event Hosted by NATIONAL COLLEGE \"INOCHENTIE MICU CLAIN\"","dateStart":"2021-04-17T00:00:00","dateEnd":"2021-04-18T00:00:00","regionCode":"RO","coords":{"lat":44.81,"lng":44.81}},{"code":"ROARARS1","name":"RO FTC Infinity Bolts' Demo Scrimmage REMOTE","typeName":"Scrimmage","venue":"Remote Event","dateStart":"2021-04-15T00:00:00","dateEnd":"2021-04-17T00:00:00","regionCode":"RO","coords":{"lat":44.81,"lng":44.81}},{"code":"ROARPIS1","name":"RO FTC TehnoZ & TehnoZ Jr Demo Scrimmage REMOTE","typeName":"Scrimmage","venue":"Remote Event","dateStart":"2021-04-06T00:00:00","dateEnd":"2021-04-07T00:00:00","regionCode":"RO","coords":{"lat":44.81,"lng":44.81}},{"code":"ROAVDLA","name":"Romania Dean's List Interview Only Event","typeName":"Other","venue":"N/A","dateStart":"2021-04-20T00:00:00","dateEnd":"2021-04-29T00:00:00","regionCode":"RO","coords":{"lat":44.81,"lng":44.81}},{"code":"ROBNBES1","name":"RO FTC DEMO ESENTZA REMOTE","typeName":"Scrimmage","venue":"Remote event / National College Petru Rares,Beclean","dateStart":"2021-04-14T00:00:00","dateEnd":"2021-04-17T00:00:00","regionCode":"RO","coords":{"lat":44.81,"lng":44.81}},{"code":"ROBUBUS1","name":"RO FTC Demo IGNITE. & QUBE Scrimmage REMOTE","typeName":"Scrimmage","venue":"Remote Event","dateStart":"2021-03-18T00:00:00","dateEnd":"2021-03-21T00:00:00","regionCode":"RO","coords":{"lat":44.81,"lng":44.81}},{"code":"ROBUFOS1","name":"RO FTC InfinityEdge DEMO Scrimmage REMOTE ","typeName":"Scrimmage","venue":"Remote Event","dateStart":"2021-05-14T00:00:00","dateEnd":"2021-05-16T00:00:00","regionCode":"RO","coords":{"lat":44.81,"lng":44.81}},{"code":"ROBUJPS1","name":"RO FTC Judging Practice Scrimmage #1  REMOTE","typeName":"Scrimmage","venue":"Remote event ","dateStart":"2021-03-11T00:00:00","dateEnd":"2021-03-17T00:00:00","regionCode":"RO","coords":{"lat":44.81,"lng":44.81}},{"code":"ROBUJUS2","name":"RO FTC Judging Practice Scrimmage #2  REMOTE","typeName":"Scrimmage","venue":"Remote event ","dateStart":"2021-03-18T00:00:00","dateEnd":"2021-03-24T00:00:00","regionCode":"RO","coords":{"lat":44.81,"lng":44.81}},{"code":"ROBUJUS3","name":"RO FTC Judging Practice Scrimmage #3  REMOTE","typeName":"Scrimmage","venue":"Remote event ","dateStart":"2021-03-25T00:00:00","dateEnd":"2021-03-30T00:00:00","regionCode":"RO","coords":{"lat":44.81,"lng":44.81}},{"code":"ROBUOS1","name":"RO FTC NATIONAL CHAMPIONSHIP HYBRID","typeName":"Off-Season","venue":"Sala Polivalenta, Bucharest","dateStart":"2021-08-27T00:00:00","dateEnd":"2021-08-29T00:00:00","regionCode":"RO","coords":{"lat":44.81,"lng":44.81}},{"code":"ROBUOS2","name":"RO FTC Quantum Robotics Traditional DEMO 2021","typeName":"Off-Season","venue":"International Informatics School of Bucharest","dateStart":"2021-08-13T00:00:00","dateEnd":"2021-08-13T00:00:00","regionCode":"RO","coords":{"lat":44.81,"lng":44.81}},{"code":"ROBURSS1","name":"RO FTC DEMO ROBO SAPIENS Scrimmage REMOTE","typeName":"Scrimmage","venue":"Remote event hosted on Discord","dateStart":"2021-03-27T00:00:00","dateEnd":"2021-03-28T00:00:00","regionCode":"RO","coords":{"lat":44.81,"lng":44.81}},{"code":"ROCLGHS1","name":"RO FTC DDOS.SHOWDOWN REMOTE","typeName":"Scrimmage","venue":"Remote Event","dateStart":"2021-04-19T00:00:00","dateEnd":"2021-04-20T00:00:00","regionCode":"RO","coords":{"lat":44.81,"lng":44.81}},{"code":"ROFOVRS1","name":"RO FTC Demo Brickbot REMOTE","typeName":"Scrimmage","venue":"Remote Event","dateStart":"2021-05-07T00:00:00","dateEnd":"2021-05-09T00:00:00","regionCode":"RO","coords":{"lat":44.81,"lng":44.81}},{"code":"ROGATES1","name":"RO FTC DEMO Thobor Scrimmage  REMOTE","typeName":"Scrimmage","venue":"Remote Event","dateStart":"2021-03-29T00:00:00","dateEnd":"2021-03-30T00:00:00","regionCode":"RO","coords":{"lat":44.81,"lng":44.81}},{"code":"ROLUOS2","name":"RO FTC Robotics Valley at Lunafest","typeName":"Off-Season","venue":"Parcul Copiilor B\u0103rb\u0103teni","dateStart":"2021-08-20T00:00:00","dateEnd":"2021-08-20T00:00:00","regionCode":"RO","coords":{"lat":44.81,"lng":44.81}},{"code":"ROPLPLS1","name":"RO FTC InfO Robotics Demo Scrimmage #1 REMOTE","typeName":"Scrimmage","venue":"Remote Event","dateStart":"2021-04-03T00:00:00","dateEnd":"2021-04-04T00:00:00","regionCode":"RO","coords":{"lat":44.81,"lng":44.81}},{"code":"ROPRPLS1","name":"RO FTC RoD2's Demo: Interstellar Battle Scrimmage REMOTE ","typeName":"Scrimmage","venue":"Remote Event","dateStart":"2021-04-10T00:00:00","dateEnd":"2021-04-11T00:00:00","regionCode":"RO","coords":{"lat":44.81,"lng":44.81}},{"code":"ROPRPLS2","name":"RO FTC InfO Robotics Demo Scrimmage #2 REMOTE","typeName":"Scrimmage","venue":"Remote Event","dateStart":"2021-05-08T00:00:00","dateEnd":"2021-05-09T00:00:00","regionCode":"RO","coords":{"lat":44.81,"lng":44.81}},{"code":"ROSISIS1","name":"RO FTC Maniacs Demo Scrimmage REMOTE","typeName":"Scrimmage","venue":"Remote Event","dateStart":"2021-03-13T00:00:00","dateEnd":"2021-03-14T00:00:00","regionCode":"RO","coords":{"lat":44.81,"lng":44.81}},{"code":"ROSISIS2","name":"RO FTC Maniacs Scrimmage v2.0 REMOTE","typeName":"Scrimmage","venue":"Remote Event","dateStart":"2021-05-21T00:00:00","dateEnd":"2021-05-23T00:00:00","regionCode":"RO","coords":{"lat":44.81,"lng":44.81}},{"code":"ROVAHUS1","name":"RO FTC QUASAR ROBOTICS DEMO REMOTE","typeName":"Scrimmage","venue":"Remote Event","dateStart":"2021-04-28T00:00:00","dateEnd":"2021-04-29T00:00:00","regionCode":"RO","coords":{"lat":44.81,"lng":44.81}},{"code":"RUNNNICT1","name":"RU FTC Russia National Championship","typeName":"Championship","venue":"Nizhegorodskaya Yarmarka","dateStart":"2021-04-23T00:00:00","dateEnd":"2021-04-25T00:00:00","regionCode":"RU","coords":{"lat":44.81,"lng":44.81}},{"code":"RUSIKRLT1","name":"RU FTC Siberia League Tournament REMOTE ","typeName":"League Tournament","venue":"Remote Event ","dateStart":"2021-02-15T00:00:00","dateEnd":"2021-02-21T00:00:00","regionCode":"RU","coords":{"lat":44.81,"lng":44.81}},{"code":"RUSIKRM1","name":"RU FTC Siberia League Meet #1 REMOTE  ","typeName":"League Meet","venue":"Remote Event ","dateStart":"2020-12-21T00:00:00","dateEnd":"2020-12-27T00:00:00","regionCode":"RU","coords":{"lat":44.81,"lng":44.81}},{"code":"RUSIKRM2","name":"RU FTC Siberia League Meet #2 REMOTE","typeName":"League Meet","venue":"Remote Event ","dateStart":"2021-01-25T00:00:00","dateEnd":"2021-01-31T00:00:00","regionCode":"RU","coords":{"lat":44.81,"lng":44.81}},{"code":"RUSIKRQT1","name":"RU FTC Siberia Qualifier","typeName":"Qualifier","venue":"Middle School 143","dateStart":"2021-03-07T00:00:00","dateEnd":"2021-03-07T00:00:00","regionCode":"RU","coords":{"lat":44.81,"lng":44.81}},{"code":"RUSPDLA","name":"Russia Dean's List Interview Only Event","typeName":"Other","venue":"N/A","dateStart":"2021-02-01T00:00:00","dateEnd":"2021-02-01T00:00:00","regionCode":"RU","coords":{"lat":44.81,"lng":44.81}},{"code":"RUSTLT1","name":"RU FTC St. Petersburg League Tournament #1","typeName":"League Tournament","venue":"High School #244","dateStart":"2021-01-23T00:00:00","dateEnd":"2021-01-24T00:00:00","regionCode":"RU","coords":{"lat":44.81,"lng":44.81}},{"code":"RUSTM1","name":"RU FTC St. Petersburg Meet #1","typeName":"League Meet","venue":"Governor Physics and Math Lyceum #30","dateStart":"2020-10-18T00:00:00","dateEnd":"2020-10-18T00:00:00","regionCode":"RU","coords":{"lat":44.81,"lng":44.81}},{"code":"RUSTM2","name":"RU FTC St. Petersburg Meet #2","typeName":"League Meet","venue":"High School #244","dateStart":"2020-11-15T00:00:00","dateEnd":"2020-11-15T00:00:00","regionCode":"RU","coords":{"lat":44.81,"lng":44.81}},{"code":"RUSTM3","name":"RU FTC St. Petersburg Meet #3","typeName":"League Meet","venue":"Governor Physics and Math Lyceum #30","dateStart":"2020-12-13T00:00:00","dateEnd":"2020-12-13T00:00:00","regionCode":"RU","coords":{"lat":44.81,"lng":44.81}},{"code":"RUSTQT1","name":"RU FTC St. Petersburg Qualifier","typeName":"Qualifier","venue":"Peter the Great St. Petersburg Polytechnic University","dateStart":"2021-02-27T00:00:00","dateEnd":"2021-02-28T00:00:00","regionCode":"RU","coords":{"lat":44.81,"lng":44.81}},{"code":"RUSTQT2","name":"RU FTC Russia Qualifier REMOTE","typeName":"Qualifier","venue":"Remote Event","dateStart":"2021-03-08T00:00:00","dateEnd":"2021-03-15T00:00:00","regionCode":"RU","coords":{"lat":44.81,"lng":44.81}}]}