{"generationTimestamp":"Sun, 04 Jan 2026 01:36:46 GMT","season":2020,"teams":[{"number":3954,"name":"Pink to the Future","org":"Maerlant-Lyceum","rookieYear":2009,"homeRegion":"NL","coords":{"lat":52.092,"lng":4.3215}},{"number":10918,"name":"SPACE","org":"Newmancollege","rookieYear":2015,"homeRegion":"NL","coords":{"lat":51.5888,"lng":4.776}},{"number":12475,"name":"Beyond Reach","org":"Zwijsen College","rookieYear":2016,"homeRegion":"NL","coords":{"lat":51.6268,"lng":5.5404}},{"number":12819,"name":"The Third Half","org":"Zwijsen College","rookieYear":2017,"homeRegion":"NL","coords":{"lat":51.6268,"lng":5.5404}},{"number":14183,"name":"Dukes of Brabant","org":"Summa College","rookieYear":2017,"homeRegion":"NL","coords":{"lat":51.4666,"lng":5.4964}},{"number":14381,"name":"Dutch Warriors","org":"Dr.-Knippenbergcollege","rookieYear":2018,"homeRegion":"NL","coords":{"lat":51.4918,"lng":5.6669}},{"number":16371,"name":"Neobots FTCunits","org":"Stichting Neobots","rookieYear":2019,"homeRegion":"NL","coords":{"lat":51.5646,"lng":5.461}},{"number":16382,"name":"Casimir Tech","org":"Lorentz Casimir Lyceum","rookieYear":2019,"homeRegion":"NL","coords":{"lat":51.4479,"lng":5.5085}},{"number":16383,"name":"Frits Philips Robotics team","org":"Frits Philips lyceum-mavo","rookieYear":2019,"homeRegion":"NL","coords":{"lat":51.4773,"lng":5.4473}},{"number":16409,"name":"Team Orange","org":"Newmancollege","rookieYear":2019,"homeRegion":"NL","coords":{"lat":51.5888,"lng":4.776}},{"number":16410,"name":"GentleBotz","org":"Newmancollege","rookieYear":2019,"homeRegion":"NL","coords":{"lat":51.5888,"lng":4.776}},{"number":16441,"name":"Pretty Smart Robotics","org":"Family/Community","rookieYear":2019,"homeRegion":"NL","coords":{"lat":53.2481,"lng":6.405}},{"number":16530,"name":"Cadmes Creators","org":"Family/Community","rookieYear":2019,"homeRegion":"NL","coords":{"lat":51.6579,"lng":5.6107}},{"number":16785,"name":"Team ProBotiX","org":"Pius X College","rookieYear":2019,"homeRegion":"NL","coords":{"lat":51.3732,"lng":5.2325}},{"number":16788,"name":"The Encrypted Gentlemen","org":"Sondervick College","rookieYear":2019,"homeRegion":"NL","coords":{"lat":51.4041,"lng":5.383}},{"number":16850,"name":"Breul-1","org":"KSG de Breul","rookieYear":2019,"homeRegion":"NL","coords":{"lat":52.0878,"lng":5.2024}},{"number":16851,"name":"Pink Potential","org":"Maerlant-Lyceum","rookieYear":2019,"homeRegion":"NL","coords":{"lat":52.092,"lng":4.3215}},{"number":16949,"name":"Skyline","org":"Helen Parkhurst","rookieYear":2019,"homeRegion":"NL","coords":{"lat":52.3751,"lng":5.2362}},{"number":16951,"name":"Team Rembrandts","org":"Team Rembrandts","rookieYear":2019,"homeRegion":"NL","coords":{"lat":51.4848,"lng":5.4874}},{"number":16977,"name":"Roboni Clan","org":"St. Bonifatiuscollege","rookieYear":2019,"homeRegion":"NL","coords":{"lat":52.0825,"lng":5.1363}},{"number":16978,"name":"Roboni Amadeus","org":"St. Bonifatiuscollege","rookieYear":2019,"homeRegion":"NL","coords":{"lat":52.0825,"lng":5.1363}},{"number":17021,"name":"Bot the Builder","org":"Gerrit Rietveld College","rookieYear":2019,"homeRegion":"NL","coords":{"lat":52.1113,"lng":5.1367}},{"number":17046,"name":"Cybears 1","org":"International School of Amsterdam","rookieYear":2019,"homeRegion":"NL","coords":{"lat":52.2895,"lng":4.8607}},{"number":17134,"name":"Zappp","org":"Tech Playgrounds - Dynamo Youthworks","rookieYear":2019,"homeRegion":"NL","coords":{"lat":51.4393,"lng":5.4786}},{"number":17227,"name":"Roboni Ultimate","org":"St. Bonifatiuscollege","rookieYear":2019,"homeRegion":"NL","coords":{"lat":52.0825,"lng":5.1363}},{"number":17258,"name":"Northgo Team","org":"Northgo Colege","rookieYear":2019,"homeRegion":"NL","coords":{"lat":52.2463,"lng":4.4533}},{"number":17259,"name":"RoboVLC","org":"Veenlandencollege","rookieYear":2019,"homeRegion":"NL","coords":{"lat":52.206,"lng":4.8648}},{"number":17579,"name":"HU-Talent Bots","org":"Hogeschool Utrecht","rookieYear":2019,"homeRegion":"NL","coords":{"lat":52.1592,"lng":5.38}},{"number":17611,"name":"Birdmachine","org":"d'Oultremontcollege.nl","rookieYear":2019,"homeRegion":"NL","coords":{"lat":51.6425,"lng":5.131}},{"number":17629,"name":"Q-Bots","org":"Johannes Fontanus College","rookieYear":2019,"homeRegion":"NL","coords":{"lat":52.1493,"lng":5.5807}},{"number":17651,"name":"The Probots","org":"Dalton Lyceum Barendrecht","rookieYear":2019,"homeRegion":"NL","coords":{"lat":51.8519,"lng":4.5294}},{"number":17652,"name":"Delta","org":"Willem van Oranje College","rookieYear":2019,"homeRegion":"NL","coords":{"lat":51.6832,"lng":5.0518}},{"number":18425,"name":"Ubbo Tech Team","org":"Ubbo Emmius Scholengemeenschap","rookieYear":2020,"homeRegion":"NL","coords":{"lat":53.2128,"lng":6.5661}},{"number":18475,"name":"Blinking Tech","org":"Greijdanus","rookieYear":2020,"homeRegion":"NL","coords":{"lat":52.7009,"lng":6.1889}},{"number":18601,"name":"Codebusters","org":"Haags  Montessori lyceum","rookieYear":2020,"homeRegion":"NL","coords":{"lat":52.09,"lng":4.3214}},{"number":18690,"name":"Iactate Altius","org":"Stedelijk Gymnasium Schiedam","rookieYear":2020,"homeRegion":"NL","coords":{"lat":51.93,"lng":4.3865}},{"number":18700,"name":"Iactate Altius","org":"Stedelijk Gymnasium Schiedam","rookieYear":2020,"homeRegion":"NL","coords":{"lat":51.93,"lng":4.3865}},{"number":18710,"name":"STA1","org":"Stanislascollege Westplantsoen","rookieYear":2020,"homeRegion":"NL","coords":{"lat":52.0085,"lng":4.3453}},{"number":18741,"name":"Cooler Bot the Builder","org":"Gerrit Rietveldcollege","rookieYear":2020,"homeRegion":"NL","coords":{"lat":52.1601,"lng":5.2669}},{"number":18778,"name":"Amadeus 1","org":"Amadeuslyceum","rookieYear":2020,"homeRegion":"NL","coords":{"lat":52.0907,"lng":5.1216}},{"number":18779,"name":"GROEVENBEEK1!","org":"Christelijk College Groevenbeek","rookieYear":2020,"homeRegion":"NL","coords":{"lat":52.2892,"lng":5.6212}},{"number":18859,"name":"Stanislas Tech Team","org":"Stanislascollege Westplantsoen","rookieYear":2020,"homeRegion":"NL","coords":{"lat":52.0085,"lng":4.3453}},{"number":18916,"name":"Cyber Team Doorn","org":"Revius Lyceum Doorn","rookieYear":2020,"homeRegion":"NL","coords":{"lat":52.0372,"lng":5.3252}},{"number":18957,"name":"Zandvliet FTC","org":"Christelijk Lyceum Zandvliet","rookieYear":2020,"homeRegion":"NL","coords":{"lat":52.0852,"lng":4.3293}},{"number":3954,"name":"Pink to the Future","org":"Maerlant-Lyceum","rookieYear":2009,"homeRegion":"NL","coords":{"lat":52.092,"lng":4.3215}},{"number":10918,"name":"SPACE","org":"Newmancollege","rookieYear":2015,"homeRegion":"NL","coords":{"lat":51.5888,"lng":4.776}},{"number":12475,"name":"Beyond Reach","org":"Zwijsen College","rookieYear":2016,"homeRegion":"NL","coords":{"lat":51.6268,"lng":5.5404}},{"number":12819,"name":"The Third Half","org":"Zwijsen College","rookieYear":2017,"homeRegion":"NL","coords":{"lat":51.6268,"lng":5.5404}},{"number":14183,"name":"Dukes of Brabant","org":"Summa College","rookieYear":2017,"homeRegion":"NL","coords":{"lat":51.4666,"lng":5.4964}},{"number":14381,"name":"Dutch Warriors","org":"Dr.-Knippenbergcollege","rookieYear":2018,"homeRegion":"NL","coords":{"lat":51.4918,"lng":5.6669}},{"number":16371,"name":"Neobots FTCunits","org":"Stichting Neobots","rookieYear":2019,"homeRegion":"NL","coords":{"lat":51.5646,"lng":5.461}},{"number":16382,"name":"Casimir Tech","org":"Lorentz Casimir Lyceum","rookieYear":2019,"homeRegion":"NL","coords":{"lat":51.4479,"lng":5.5085}},{"number":16383,"name":"Frits Philips Robotics team","org":"Frits Philips lyceum-mavo","rookieYear":2019,"homeRegion":"NL","coords":{"lat":51.4773,"lng":5.4473}},{"number":16409,"name":"Team Orange","org":"Newmancollege","rookieYear":2019,"homeRegion":"NL","coords":{"lat":51.5888,"lng":4.776}},{"number":16410,"name":"GentleBotz","org":"Newmancollege","rookieYear":2019,"homeRegion":"NL","coords":{"lat":51.5888,"lng":4.776}},{"number":16441,"name":"Pretty Smart Robotics","org":"Family/Community","rookieYear":2019,"homeRegion":"NL","coords":{"lat":53.2481,"lng":6.405}},{"number":16530,"name":"Cadmes Creators","org":"Family/Community","rookieYear":2019,"homeRegion":"NL","coords":{"lat":51.6579,"lng":5.6107}},{"number":16785,"name":"Team ProBotiX","org":"Pius X College","rookieYear":2019,"homeRegion":"NL","coords":{"lat":51.3732,"lng":5.2325}},{"number":16788,"name":"The Encrypted Gentlemen","org":"Sondervick College","rookieYear":2019,"homeRegion":"NL","coords":{"lat":51.4041,"lng":5.383}},{"number":16850,"name":"Breul-1","org":"KSG de Breul","rookieYear":2019,"homeRegion":"NL","coords":{"lat":52.0878,"lng":5.2024}},{"number":16851,"name":"Pink Potential","org":"Maerlant-Lyceum","rookieYear":2019,"homeRegion":"NL","coords":{"lat":52.092,"lng":4.3215}},{"number":16949,"name":"Skyline","org":"Helen Parkhurst","rookieYear":2019,"homeRegion":"NL","coords":{"lat":52.3751,"lng":5.2362}},{"number":16951,"name":"Team Rembrandts","org":"Team Rembrandts","rookieYear":2019,"homeRegion":"NL","coords":{"lat":51.4848,"lng":5.4874}},{"number":16977,"name":"Roboni Clan","org":"St. Bonifatiuscollege","rookieYear":2019,"homeRegion":"NL","coords":{"lat":52.0825,"lng":5.1363}},{"number":16978,"name":"Roboni Amadeus","org":"St. Bonifatiuscollege","rookieYear":2019,"homeRegion":"NL","coords":{"lat":52.0825,"lng":5.1363}},{"number":17021,"name":"Bot the Builder","org":"Gerrit Rietveld College","rookieYear":2019,"homeRegion":"NL","coords":{"lat":52.1113,"lng":5.1367}},{"number":17046,"name":"Cybears 1","org":"International School of Amsterdam","rookieYear":2019,"homeRegion":"NL","coords":{"lat":52.2895,"lng":4.8607}},{"number":17134,"name":"Zappp","org":"Tech Playgrounds - Dynamo Youthworks","rookieYear":2019,"homeRegion":"NL","coords":{"lat":51.4393,"lng":5.4786}},{"number":17227,"name":"Roboni Ultimate","org":"St. Bonifatiuscollege","rookieYear":2019,"homeRegion":"NL","coords":{"lat":52.0825,"lng":5.1363}},{"number":17258,"name":"Northgo Team","org":"Northgo Colege","rookieYear":2019,"homeRegion":"NL","coords":{"lat":52.2463,"lng":4.4533}},{"number":17259,"name":"RoboVLC","org":"Veenlandencollege","rookieYear":2019,"homeRegion":"NL","coords":{"lat":52.206,"lng":4.8648}},{"number":17579,"name":"HU-Talent Bots","org":"Hogeschool Utrecht","rookieYear":2019,"homeRegion":"NL","coords":{"lat":52.1592,"lng":5.38}},{"number":17611,"name":"Birdmachine","org":"d'Oultremontcollege.nl","rookieYear":2019,"homeRegion":"NL","coords":{"lat":51.6425,"lng":5.131}},{"number":17629,"name":"Q-Bots","org":"Johannes Fontanus College","rookieYear":2019,"homeRegion":"NL","coords":{"lat":52.1493,"lng":5.5807}},{"number":17651,"name":"The Probots","org":"Dalton Lyceum Barendrecht","rookieYear":2019,"homeRegion":"NL","coords":{"lat":51.8519,"lng":4.5294}},{"number":17652,"name":"Delta","org":"Willem van Oranje College","rookieYear":2019,"homeRegion":"NL","coords":{"lat":51.6832,"lng":5.0518}},{"number":18425,"name":"Ubbo Tech Team","org":"Ubbo Emmius Scholengemeenschap","rookieYear":2020,"homeRegion":"NL","coords":{"lat":53.2128,"lng":6.5661}},{"number":18475,"name":"Blinking Tech","org":"Greijdanus","rookieYear":2020,"homeRegion":"NL","coords":{"lat":52.7009,"lng":6.1889}},{"number":18601,"name":"Codebusters","org":"Haags  Montessori lyceum","rookieYear":2020,"homeRegion":"NL","coords":{"lat":52.09,"lng":4.3214}},{"number":18690,"name":"Iactate Altius","org":"Stedelijk Gymnasium Schiedam","rookieYear":2020,"homeRegion":"NL","coords":{"lat":51.93,"lng":4.3865}},{"number":18700,"name":"Iactate Altius","org":"Stedelijk Gymnasium Schiedam","rookieYear":2020,"homeRegion":"NL","coords":{"lat":51.93,"lng":4.3865}},{"number":18710,"name":"STA1","org":"Stanislascollege Westplantsoen","rookieYear":2020,"homeRegion":"NL","coords":{"lat":52.0085,"lng":4.3453}},{"number":18741,"name":"Cooler Bot the Builder","org":"Gerrit Rietveldcollege","rookieYear":2020,"homeRegion":"NL","coords":{"lat":52.1601,"lng":5.2669}},{"number":18778,"name":"Amadeus 1","org":"Amadeuslyceum","rookieYear":2020,"homeRegion":"NL","coords":{"lat":52.0907,"lng":5.1216}},{"number":18779,"name":"GROEVENBEEK1!","org":"Christelijk College Groevenbeek","rookieYear":2020,"homeRegion":"NL","coords":{"lat":52.2892,"lng":5.6212}},{"number":18859,"name":"Stanislas Tech Team","org":"Stanislascollege Westplantsoen","rookieYear":2020,"homeRegion":"NL","coords":{"lat":52.0085,"lng":4.3453}},{"number":18916,"name":"Cyber Team Doorn","org":"Revius Lyceum Doorn","rookieYear":2020,"homeRegion":"NL","coords":{"lat":52.0372,"lng":5.3252}},{"number":18957,"name":"Zandvliet FTC","org":"Christelijk Lyceum Zandvliet","rookieYear":2020,"homeRegion":"NL","coords":{"lat":52.0852,"lng":4.3293}},{"number":3954,"name":"Pink to the Future","org":"Maerlant-Lyceum","rookieYear":2009,"homeRegion":"NL","coords":{"lat":52.092,"lng":4.3215}},{"number":10918,"name":"SPACE","org":"Newmancollege","rookieYear":2015,"homeRegion":"NL","coords":{"lat":51.5888,"lng":4.776}},{"number":12475,"name":"Beyond Reach","org":"Zwijsen College","rookieYear":2016,"homeRegion":"NL","coords":{"lat":51.6268,"lng":5.5404}},{"number":12819,"name":"The Third Half","org":"Zwijsen College","rookieYear":2017,"homeRegion":"NL","coords":{"lat":51.6268,"lng":5.5404}},{"number":14183,"name":"Dukes of Brabant","org":"Summa College","rookieYear":2017,"homeRegion":"NL","coords":{"lat":51.4666,"lng":5.4964}},{"number":14381,"name":"Dutch Warriors","org":"Dr.-Knippenbergcollege","rookieYear":2018,"homeRegion":"NL","coords":{"lat":51.4918,"lng":5.6669}},{"number":16371,"name":"Neobots FTCunits","org":"Stichting Neobots","rookieYear":2019,"homeRegion":"NL","coords":{"lat":51.5646,"lng":5.461}},{"number":16382,"name":"Casimir Tech","org":"Lorentz Casimir Lyceum","rookieYear":2019,"homeRegion":"NL","coords":{"lat":51.4479,"lng":5.5085}},{"number":16383,"name":"Frits Philips Robotics team","org":"Frits Philips lyceum-mavo","rookieYear":2019,"homeRegion":"NL","coords":{"lat":51.4773,"lng":5.4473}},{"number":16409,"name":"Team Orange","org":"Newmancollege","rookieYear":2019,"homeRegion":"NL","coords":{"lat":51.5888,"lng":4.776}},{"number":16410,"name":"GentleBotz","org":"Newmancollege","rookieYear":2019,"homeRegion":"NL","coords":{"lat":51.5888,"lng":4.776}},{"number":16441,"name":"Pretty Smart Robotics","org":"Family/Community","rookieYear":2019,"homeRegion":"NL","coords":{"lat":53.2481,"lng":6.405}},{"number":16530,"name":"Cadmes Creators","org":"Family/Community","rookieYear":2019,"homeRegion":"NL","coords":{"lat":51.6579,"lng":5.6107}},{"number":16785,"name":"Team ProBotiX","org":"Pius X College","rookieYear":2019,"homeRegion":"NL","coords":{"lat":51.3732,"lng":5.2325}},{"number":16788,"name":"The Encrypted Gentlemen","org":"Sondervick College","rookieYear":2019,"homeRegion":"NL","coords":{"lat":51.4041,"lng":5.383}},{"number":16850,"name":"Breul-1","org":"KSG de Breul","rookieYear":2019,"homeRegion":"NL","coords":{"lat":52.0878,"lng":5.2024}},{"number":16851,"name":"Pink Potential","org":"Maerlant-Lyceum","rookieYear":2019,"homeRegion":"NL","coords":{"lat":52.092,"lng":4.3215}},{"number":16949,"name":"Skyline","org":"Helen Parkhurst","rookieYear":2019,"homeRegion":"NL","coords":{"lat":52.3751,"lng":5.2362}},{"number":16951,"name":"Team Rembrandts","org":"Team Rembrandts","rookieYear":2019,"homeRegion":"NL","coords":{"lat":51.4848,"lng":5.4874}},{"number":16977,"name":"Roboni Clan","org":"St. Bonifatiuscollege","rookieYear":2019,"homeRegion":"NL","coords":{"lat":52.0825,"lng":5.1363}},{"number":16978,"name":"Roboni Amadeus","org":"St. Bonifatiuscollege","rookieYear":2019,"homeRegion":"NL","coords":{"lat":52.0825,"lng":5.1363}},{"number":17021,"name":"Bot the Builder","org":"Gerrit Rietveld College","rookieYear":2019,"homeRegion":"NL","coords":{"lat":52.1113,"lng":5.1367}},{"number":17046,"name":"Cybears 1","org":"International School of Amsterdam","rookieYear":2019,"homeRegion":"NL","coords":{"lat":52.2895,"lng":4.8607}},{"number":17134,"name":"Zappp","org":"Tech Playgrounds - Dynamo Youthworks","rookieYear":2019,"homeRegion":"NL","coords":{"lat":51.4393,"lng":5.4786}},{"number":17227,"name":"Roboni Ultimate","org":"St. Bonifatiuscollege","rookieYear":2019,"homeRegion":"NL","coords":{"lat":52.0825,"lng":5.1363}},{"number":17258,"name":"Northgo Team","org":"Northgo Colege","rookieYear":2019,"homeRegion":"NL","coords":{"lat":52.2463,"lng":4.4533}},{"number":17259,"name":"RoboVLC","org":"Veenlandencollege","rookieYear":2019,"homeRegion":"NL","coords":{"lat":52.206,"lng":4.8648}},{"number":17579,"name":"HU-Talent Bots","org":"Hogeschool Utrecht","rookieYear":2019,"homeRegion":"NL","coords":{"lat":52.1592,"lng":5.38}},{"number":17611,"name":"Birdmachine","org":"d'Oultremontcollege.nl","rookieYear":2019,"homeRegion":"NL","coords":{"lat":51.6425,"lng":5.131}},{"number":17629,"name":"Q-Bots","org":"Johannes Fontanus College","rookieYear":2019,"homeRegion":"NL","coords":{"lat":52.1493,"lng":5.5807}},{"number":17651,"name":"The Probots","org":"Dalton Lyceum Barendrecht","rookieYear":2019,"homeRegion":"NL","coords":{"lat":51.8519,"lng":4.5294}},{"number":17652,"name":"Delta","org":"Willem van Oranje College","rookieYear":2019,"homeRegion":"NL","coords":{"lat":51.6832,"lng":5.0518}},{"number":18425,"name":"Ubbo Tech Team","org":"Ubbo Emmius Scholengemeenschap","rookieYear":2020,"homeRegion":"NL","coords":{"lat":53.2128,"lng":6.5661}},{"number":18475,"name":"Blinking Tech","org":"Greijdanus","rookieYear":2020,"homeRegion":"NL","coords":{"lat":52.7009,"lng":6.1889}},{"number":18601,"name":"Codebusters","org":"Haags  Montessori lyceum","rookieYear":2020,"homeRegion":"NL","coords":{"lat":52.09,"lng":4.3214}},{"number":18690,"name":"Iactate Altius","org":"Stedelijk Gymnasium Schiedam","rookieYear":2020,"homeRegion":"NL","coords":{"lat":51.93,"lng":4.3865}},{"number":18700,"name":"Iactate Altius","org":"Stedelijk Gymnasium Schiedam","rookieYear":2020,"homeRegion":"NL","coords":{"lat":51.93,"lng":4.3865}},{"number":18710,"name":"STA1","org":"Stanislascollege Westplantsoen","rookieYear":2020,"homeRegion":"NL","coords":{"lat":52.0085,"lng":4.3453}},{"number":18741,"name":"Cooler Bot the Builder","org":"Gerrit Rietveldcollege","rookieYear":2020,"homeRegion":"NL","coords":{"lat":52.1601,"lng":5.2669}},{"number":18778,"name":"Amadeus 1","org":"Amadeuslyceum","rookieYear":2020,"homeRegion":"NL","coords":{"lat":52.0907,"lng":5.1216}},{"number":18779,"name":"GROEVENBEEK1!","org":"Christelijk College Groevenbeek","rookieYear":2020,"homeRegion":"NL","coords":{"lat":52.2892,"lng":5.6212}},{"number":18859,"name":"Stanislas Tech Team","org":"Stanislascollege Westplantsoen","rookieYear":2020,"homeRegion":"NL","coords":{"lat":52.0085,"lng":4.3453}},{"number":18916,"name":"Cyber Team Doorn","org":"Revius Lyceum Doorn","rookieYear":2020,"homeRegion":"NL","coords":{"lat":52.0372,"lng":5.3252}},{"number":18957,"name":"Zandvliet FTC","org":"Christelijk Lyceum Zandvliet","rookieYear":2020,"homeRegion":"NL","coords":{"lat":52.0852,"lng":4.3293}},{"number":3954,"name":"Pink to the Future","org":"Maerlant-Lyceum","rookieYear":2009,"homeRegion":"NL","coords":{"lat":52.092,"lng":4.3215}},{"number":10918,"name":"SPACE","org":"Newmancollege","rookieYear":2015,"homeRegion":"NL","coords":{"lat":51.5888,"lng":4.776}},{"number":12475,"name":"Beyond Reach","org":"Zwijsen College","rookieYear":2016,"homeRegion":"NL","coords":{"lat":51.6268,"lng":5.5404}},{"number":12819,"name":"The Third Half","org":"Zwijsen College","rookieYear":2017,"homeRegion":"NL","coords":{"lat":51.6268,"lng":5.5404}},{"number":14183,"name":"Dukes of Brabant","org":"Summa College","rookieYear":2017,"homeRegion":"NL","coords":{"lat":51.4666,"lng":5.4964}},{"number":14381,"name":"Dutch Warriors","org":"Dr.-Knippenbergcollege","rookieYear":2018,"homeRegion":"NL","coords":{"lat":51.4918,"lng":5.6669}},{"number":16371,"name":"Neobots FTCunits","org":"Stichting Neobots","rookieYear":2019,"homeRegion":"NL","coords":{"lat":51.5646,"lng":5.461}},{"number":16382,"name":"Casimir Tech","org":"Lorentz Casimir Lyceum","rookieYear":2019,"homeRegion":"NL","coords":{"lat":51.4479,"lng":5.5085}},{"number":16383,"name":"Frits Philips Robotics team","org":"Frits Philips lyceum-mavo","rookieYear":2019,"homeRegion":"NL","coords":{"lat":51.4773,"lng":5.4473}},{"number":16409,"name":"Team Orange","org":"Newmancollege","rookieYear":2019,"homeRegion":"NL","coords":{"lat":51.5888,"lng":4.776}},{"number":16410,"name":"GentleBotz","org":"Newmancollege","rookieYear":2019,"homeRegion":"NL","coords":{"lat":51.5888,"lng":4.776}},{"number":16441,"name":"Pretty Smart Robotics","org":"Family/Community","rookieYear":2019,"homeRegion":"NL","coords":{"lat":53.2481,"lng":6.405}},{"number":16530,"name":"Cadmes Creators","org":"Family/Community","rookieYear":2019,"homeRegion":"NL","coords":{"lat":51.6579,"lng":5.6107}},{"number":16785,"name":"Team ProBotiX","org":"Pius X College","rookieYear":2019,"homeRegion":"NL","coords":{"lat":51.3732,"lng":5.2325}},{"number":16788,"name":"The Encrypted Gentlemen","org":"Sondervick College","rookieYear":2019,"homeRegion":"NL","coords":{"lat":51.4041,"lng":5.383}},{"number":16850,"name":"Breul-1","org":"KSG de Breul","rookieYear":2019,"homeRegion":"NL","coords":{"lat":52.0878,"lng":5.2024}},{"number":16851,"name":"Pink Potential","org":"Maerlant-Lyceum","rookieYear":2019,"homeRegion":"NL","coords":{"lat":52.092,"lng":4.3215}},{"number":16949,"name":"Skyline","org":"Helen Parkhurst","rookieYear":2019,"homeRegion":"NL","coords":{"lat":52.3751,"lng":5.2362}},{"number":16951,"name":"Team Rembrandts","org":"Team Rembrandts","rookieYear":2019,"homeRegion":"NL","coords":{"lat":51.4848,"lng":5.4874}},{"number":16977,"name":"Roboni Clan","org":"St. Bonifatiuscollege","rookieYear":2019,"homeRegion":"NL","coords":{"lat":52.0825,"lng":5.1363}},{"number":16978,"name":"Roboni Amadeus","org":"St. Bonifatiuscollege","rookieYear":2019,"homeRegion":"NL","coords":{"lat":52.0825,"lng":5.1363}},{"number":17021,"name":"Bot the Builder","org":"Gerrit Rietveld College","rookieYear":2019,"homeRegion":"NL","coords":{"lat":52.1113,"lng":5.1367}},{"number":17046,"name":"Cybears 1","org":"International School of Amsterdam","rookieYear":2019,"homeRegion":"NL","coords":{"lat":52.2895,"lng":4.8607}},{"number":17134,"name":"Zappp","org":"Tech Playgrounds - Dynamo Youthworks","rookieYear":2019,"homeRegion":"NL","coords":{"lat":51.4393,"lng":5.4786}},{"number":17227,"name":"Roboni Ultimate","org":"St. Bonifatiuscollege","rookieYear":2019,"homeRegion":"NL","coords":{"lat":52.0825,"lng":5.1363}},{"number":17258,"name":"Northgo Team","org":"Northgo Colege","rookieYear":2019,"homeRegion":"NL","coords":{"lat":52.2463,"lng":4.4533}},{"number":17259,"name":"RoboVLC","org":"Veenlandencollege","rookieYear":2019,"homeRegion":"NL","coords":{"lat":52.206,"lng":4.8648}},{"number":17579,"name":"HU-Talent Bots","org":"Hogeschool Utrecht","rookieYear":2019,"homeRegion":"NL","coords":{"lat":52.1592,"lng":5.38}},{"number":17611,"name":"Birdmachine","org":"d'Oultremontcollege.nl","rookieYear":2019,"homeRegion":"NL","coords":{"lat":51.6425,"lng":5.131}},{"number":17629,"name":"Q-Bots","org":"Johannes Fontanus College","rookieYear":2019,"homeRegion":"NL","coords":{"lat":52.1493,"lng":5.5807}},{"number":17651,"name":"The Probots","org":"Dalton Lyceum Barendrecht","rookieYear":2019,"homeRegion":"NL","coords":{"lat":51.8519,"lng":4.5294}},{"number":17652,"name":"Delta","org":"Willem van Oranje College","rookieYear":2019,"homeRegion":"NL","coords":{"lat":51.6832,"lng":5.0518}},{"number":18425,"name":"Ubbo Tech Team","org":"Ubbo Emmius Scholengemeenschap","rookieYear":2020,"homeRegion":"NL","coords":{"lat":53.2128,"lng":6.5661}},{"number":18475,"name":"Blinking Tech","org":"Greijdanus","rookieYear":2020,"homeRegion":"NL","coords":{"lat":52.7009,"lng":6.1889}},{"number":18601,"name":"Codebusters","org":"Haags  Montessori lyceum","rookieYear":2020,"homeRegion":"NL","coords":{"lat":52.09,"lng":4.3214}},{"number":18690,"name":"Iactate Altius","org":"Stedelijk Gymnasium Schiedam","rookieYear":2020,"homeRegion":"NL","coords":{"lat":51.93,"lng":4.3865}},{"number":18700,"name":"Iactate Altius","org":"Stedelijk Gymnasium Schiedam","rookieYear":2020,"homeRegion":"NL","coords":{"lat":51.93,"lng":4.3865}},{"number":18710,"name":"STA1","org":"Stanislascollege Westplantsoen","rookieYear":2020,"homeRegion":"NL","coords":{"lat":52.0085,"lng":4.3453}},{"number":18741,"name":"Cooler Bot the Builder","org":"Gerrit Rietveldcollege","rookieYear":2020,"homeRegion":"NL","coords":{"lat":52.1601,"lng":5.2669}},{"number":18778,"name":"Amadeus 1","org":"Amadeuslyceum","rookieYear":2020,"homeRegion":"NL","coords":{"lat":52.0907,"lng":5.1216}},{"number":18779,"name":"GROEVENBEEK1!","org":"Christelijk College Groevenbeek","rookieYear":2020,"homeRegion":"NL","coords":{"lat":52.2892,"lng":5.6212}},{"number":18859,"name":"Stanislas Tech Team","org":"Stanislascollege Westplantsoen","rookieYear":2020,"homeRegion":"NL","coords":{"lat":52.0085,"lng":4.3453}},{"number":18916,"name":"Cyber Team Doorn","org":"Revius Lyceum Doorn","rookieYear":2020,"homeRegion":"NL","coords":{"lat":52.0372,"lng":5.3252}},{"number":18957,"name":"Zandvliet FTC","org":"Christelijk Lyceum Zandvliet","rookieYear":2020,"homeRegion":"NL","coords":{"lat":52.0852,"lng":4.3293}},{"number":3954,"name":"Pink to the Future","org":"Maerlant-Lyceum","rookieYear":2009,"homeRegion":"NL","coords":{"lat":52.092,"lng":4.3215}},{"number":10918,"name":"SPACE","org":"Newmancollege","rookieYear":2015,"homeRegion":"NL","coords":{"lat":51.5888,"lng":4.776}},{"number":12475,"name":"Beyond Reach","org":"Zwijsen College","rookieYear":2016,"homeRegion":"NL","coords":{"lat":51.6268,"lng":5.5404}},{"number":12819,"name":"The Third Half","org":"Zwijsen College","rookieYear":2017,"homeRegion":"NL","coords":{"lat":51.6268,"lng":5.5404}},{"number":14183,"name":"Dukes of Brabant","org":"Summa College","rookieYear":2017,"homeRegion":"NL","coords":{"lat":51.4666,"lng":5.4964}},{"number":14381,"name":"Dutch Warriors","org":"Dr.-Knippenbergcollege","rookieYear":2018,"homeRegion":"NL","coords":{"lat":51.4918,"lng":5.6669}},{"number":16371,"name":"Neobots FTCunits","org":"Stichting Neobots","rookieYear":2019,"homeRegion":"NL","coords":{"lat":51.5646,"lng":5.461}},{"number":16382,"name":"Casimir Tech","org":"Lorentz Casimir Lyceum","rookieYear":2019,"homeRegion":"NL","coords":{"lat":51.4479,"lng":5.5085}},{"number":16383,"name":"Frits Philips Robotics team","org":"Frits Philips lyceum-mavo","rookieYear":2019,"homeRegion":"NL","coords":{"lat":51.4773,"lng":5.4473}},{"number":16409,"name":"Team Orange","org":"Newmancollege","rookieYear":2019,"homeRegion":"NL","coords":{"lat":51.5888,"lng":4.776}},{"number":16410,"name":"GentleBotz","org":"Newmancollege","rookieYear":2019,"homeRegion":"NL","coords":{"lat":51.5888,"lng":4.776}},{"number":16441,"name":"Pretty Smart Robotics","org":"Family/Community","rookieYear":2019,"homeRegion":"NL","coords":{"lat":53.2481,"lng":6.405}},{"number":16530,"name":"Cadmes Creators","org":"Family/Community","rookieYear":2019,"homeRegion":"NL","coords":{"lat":51.6579,"lng":5.6107}},{"number":16785,"name":"Team ProBotiX","org":"Pius X College","rookieYear":2019,"homeRegion":"NL","coords":{"lat":51.3732,"lng":5.2325}},{"number":16788,"name":"The Encrypted Gentlemen","org":"Sondervick College","rookieYear":2019,"homeRegion":"NL","coords":{"lat":51.4041,"lng":5.383}},{"number":16850,"name":"Breul-1","org":"KSG de Breul","rookieYear":2019,"homeRegion":"NL","coords":{"lat":52.0878,"lng":5.2024}},{"number":16851,"name":"Pink Potential","org":"Maerlant-Lyceum","rookieYear":2019,"homeRegion":"NL","coords":{"lat":52.092,"lng":4.3215}},{"number":16949,"name":"Skyline","org":"Helen Parkhurst","rookieYear":2019,"homeRegion":"NL","coords":{"lat":52.3751,"lng":5.2362}},{"number":16951,"name":"Team Rembrandts","org":"Team Rembrandts","rookieYear":2019,"homeRegion":"NL","coords":{"lat":51.4848,"lng":5.4874}},{"number":16977,"name":"Roboni Clan","org":"St. Bonifatiuscollege","rookieYear":2019,"homeRegion":"NL","coords":{"lat":52.0825,"lng":5.1363}},{"number":16978,"name":"Roboni Amadeus","org":"St. Bonifatiuscollege","rookieYear":2019,"homeRegion":"NL","coords":{"lat":52.0825,"lng":5.1363}},{"number":17021,"name":"Bot the Builder","org":"Gerrit Rietveld College","rookieYear":2019,"homeRegion":"NL","coords":{"lat":52.1113,"lng":5.1367}},{"number":17046,"name":"Cybears 1","org":"International School of Amsterdam","rookieYear":2019,"homeRegion":"NL","coords":{"lat":52.2895,"lng":4.8607}},{"number":17134,"name":"Zappp","org":"Tech Playgrounds - Dynamo Youthworks","rookieYear":2019,"homeRegion":"NL","coords":{"lat":51.4393,"lng":5.4786}},{"number":17227,"name":"Roboni Ultimate","org":"St. Bonifatiuscollege","rookieYear":2019,"homeRegion":"NL","coords":{"lat":52.0825,"lng":5.1363}},{"number":17258,"name":"Northgo Team","org":"Northgo Colege","rookieYear":2019,"homeRegion":"NL","coords":{"lat":52.2463,"lng":4.4533}},{"number":17259,"name":"RoboVLC","org":"Veenlandencollege","rookieYear":2019,"homeRegion":"NL","coords":{"lat":52.206,"lng":4.8648}},{"number":17579,"name":"HU-Talent Bots","org":"Hogeschool Utrecht","rookieYear":2019,"homeRegion":"NL","coords":{"lat":52.1592,"lng":5.38}},{"number":17611,"name":"Birdmachine","org":"d'Oultremontcollege.nl","rookieYear":2019,"homeRegion":"NL","coords":{"lat":51.6425,"lng":5.131}},{"number":17629,"name":"Q-Bots","org":"Johannes Fontanus College","rookieYear":2019,"homeRegion":"NL","coords":{"lat":52.1493,"lng":5.5807}},{"number":17651,"name":"The Probots","org":"Dalton Lyceum Barendrecht","rookieYear":2019,"homeRegion":"NL","coords":{"lat":51.8519,"lng":4.5294}},{"number":17652,"name":"Delta","org":"Willem van Oranje College","rookieYear":2019,"homeRegion":"NL","coords":{"lat":51.6832,"lng":5.0518}},{"number":18425,"name":"Ubbo Tech Team","org":"Ubbo Emmius Scholengemeenschap","rookieYear":2020,"homeRegion":"NL","coords":{"lat":53.2128,"lng":6.5661}},{"number":18475,"name":"Blinking Tech","org":"Greijdanus","rookieYear":2020,"homeRegion":"NL","coords":{"lat":52.7009,"lng":6.1889}},{"number":18601,"name":"Codebusters","org":"Haags  Montessori lyceum","rookieYear":2020,"homeRegion":"NL","coords":{"lat":52.09,"lng":4.3214}},{"number":18690,"name":"Iactate Altius","org":"Stedelijk Gymnasium Schiedam","rookieYear":2020,"homeRegion":"NL","coords":{"lat":51.93,"lng":4.3865}},{"number":18700,"name":"Iactate Altius","org":"Stedelijk Gymnasium Schiedam","rookieYear":2020,"homeRegion":"NL","coords":{"lat":51.93,"lng":4.3865}},{"number":18710,"name":"STA1","org":"Stanislascollege Westplantsoen","rookieYear":2020,"homeRegion":"NL","coords":{"lat":52.0085,"lng":4.3453}},{"number":18741,"name":"Cooler Bot the Builder","org":"Gerrit Rietveldcollege","rookieYear":2020,"homeRegion":"NL","coords":{"lat":52.1601,"lng":5.2669}},{"number":18778,"name":"Amadeus 1","org":"Amadeuslyceum","rookieYear":2020,"homeRegion":"NL","coords":{"lat":52.0907,"lng":5.1216}},{"number":18779,"name":"GROEVENBEEK1!","org":"Christelijk College Groevenbeek","rookieYear":2020,"homeRegion":"NL","coords":{"lat":52.2892,"lng":5.6212}},{"number":18859,"name":"Stanislas Tech Team","org":"Stanislascollege Westplantsoen","rookieYear":2020,"homeRegion":"NL","coords":{"lat":52.0085,"lng":4.3453}},{"number":18916,"name":"Cyber Team Doorn","org":"Revius Lyceum Doorn","rookieYear":2020,"homeRegion":"NL","coords":{"lat":52.0372,"lng":5.3252}},{"number":18957,"name":"Zandvliet FTC","org":"Christelijk Lyceum Zandvliet","rookieYear":2020,"homeRegion":"NL","coords":{"lat":52.0852,"lng":4.3293}}],"events":[{"code":"","name":"Netherlands Dean's List Interview Only Event","typeName":"Other","venue":"N/A","dateStart":"2021-02-01T00:00:00","dateEnd":"2021-02-01T00:00:00","regionCode":"NL","coords":{"lat":0.0,"lng":0.0}},{"code":"","name":"League Meet Breda #3  REMOTE","typeName":"League Meet","venue":"Please see website for details ","dateStart":"2021-04-10T00:00:00","dateEnd":"2021-04-10T00:00:00","regionCode":"NL","coords":{"lat":0.0,"lng":0.0}},{"code":"","name":"League Meet Eindhoven #2  REMOTE","typeName":"League Meet","venue":"Remote Event","dateStart":"2021-03-20T00:00:00","dateEnd":"2021-03-20T00:00:00","regionCode":"NL","coords":{"lat":0.0,"lng":0.0}},{"code":"","name":"Netherlands Championship REMOTE","typeName":"Championship","venue":"Please see website for details","dateStart":"2021-06-05T00:00:00","dateEnd":"2021-06-05T00:00:00","regionCode":"NL","coords":{"lat":0.0,"lng":0.0}},{"code":"","name":"League Meet Utrecht #4  REMOTE","typeName":"League Meet","venue":"Please see website for details ","dateStart":"2021-04-17T00:00:00","dateEnd":"2021-04-17T00:00:00","regionCode":"NL","coords":{"lat":0.0,"lng":0.0}},{"code":"","name":"Netherlands Sondervick College Scrimmage","typeName":"Off-Season","venue":"Sondervick College","dateStart":"2021-09-09T00:00:00","dateEnd":"2021-09-09T00:00:00","regionCode":"NL","coords":{"lat":0.0,"lng":0.0}},{"code":"","name":"League Meet Den Hague #1 REMOTE","typeName":"League Meet","venue":"Remote Event","dateStart":"2021-03-20T00:00:00","dateEnd":"2021-03-20T00:00:00","regionCode":"NL","coords":{"lat":0.0,"lng":0.0}}]}