{"generationTimestamp":"Sun, 04 Jan 2026 01:37:50 GMT","season":2025,"teams":[{"number":3954,"name":"Pink to the Future","org":"Maerlant-Lyceum","rookieYear":2009,"homeRegion":"NL","coords":{"lat":52.092,"lng":4.3215}},{"number":3977,"name":"Stanislas Tech Team","org":"Stanislascollege","rookieYear":2009,"homeRegion":"NL","coords":{"lat":51.9976,"lng":4.3325}},{"number":10918,"name":"SPACE","org":"Newmancollege","rookieYear":2015,"homeRegion":"NL","coords":{"lat":51.5888,"lng":4.776}},{"number":12475,"name":"Chilling Chinchillas","org":"Zwijsen College Veghel","rookieYear":2016,"homeRegion":"NL","coords":{"lat":51.6268,"lng":5.5404}},{"number":12819,"name":"Shining Sheep","org":"Zwijsen College Veghel","rookieYear":2017,"homeRegion":"NL","coords":{"lat":51.6268,"lng":5.5404}},{"number":13953,"name":"Stanislas Tech Academy","org":"Stanislascollege","rookieYear":2017,"homeRegion":"NL","coords":{"lat":51.9976,"lng":4.3325}},{"number":14183,"name":"Dukes of Brabant","org":"Summa College","rookieYear":2017,"homeRegion":"NL","coords":{"lat":51.4666,"lng":5.4964}},{"number":14381,"name":"Knippin' Gears","org":"Dr.-Knippenbergcollege","rookieYear":2018,"homeRegion":"NL","coords":{"lat":51.4918,"lng":5.6669}},{"number":16382,"name":"Casimir Tech","org":"Lorentz Casimir Lyceum","rookieYear":2019,"homeRegion":"NL","coords":{"lat":51.4479,"lng":5.5085}},{"number":16383,"name":"Frits Philips Robotics team","org":"Frits Philips lyceum-mavo","rookieYear":2019,"homeRegion":"NL","coords":{"lat":51.4773,"lng":5.4473}},{"number":16402,"name":"Panic Attack","org":"Gymnasium Beekvliet","rookieYear":2019,"homeRegion":"NL","coords":{"lat":51.6419,"lng":5.3647}},{"number":16409,"name":"Team Orange","org":"Newmancollege","rookieYear":2019,"homeRegion":"NL","coords":{"lat":51.5888,"lng":4.776}},{"number":16410,"name":"GentleBotz","org":"Newmancollege","rookieYear":2019,"homeRegion":"NL","coords":{"lat":51.5888,"lng":4.776}},{"number":16441,"name":"Pretty Smart Robotics","org":"Science & Robotics vereniging Pretty Smart/JC Electronics/BOIKON/RSG de Borgen-Woldborg & Family/Community","rookieYear":2019,"homeRegion":"NL","coords":{"lat":53.2202,"lng":6.3067}},{"number":16785,"name":"Team ProBotiX","org":"Pius X College","rookieYear":2019,"homeRegion":"NL","coords":{"lat":51.3732,"lng":5.2325}},{"number":16788,"name":"The Encrypted Gentlemen","org":"Sondervick College","rookieYear":2019,"homeRegion":"NL","coords":{"lat":51.4041,"lng":5.383}},{"number":16850,"name":"Breul-1","org":"KSG de Breul","rookieYear":2019,"homeRegion":"NL","coords":{"lat":52.0878,"lng":5.2024}},{"number":16977,"name":"Roboni Forever","org":"St. Bonifatiuscollege","rookieYear":2019,"homeRegion":"NL","coords":{"lat":52.0825,"lng":5.1363}},{"number":17134,"name":"Zappp","org":"Tech Playgrounds - Dynamo Youthworks","rookieYear":2019,"homeRegion":"NL","coords":{"lat":51.4393,"lng":5.4786}},{"number":17227,"name":"Roboni Rookies","org":"St. Bonifatiuscollege","rookieYear":2019,"homeRegion":"NL","coords":{"lat":52.0825,"lng":5.1363}},{"number":17258,"name":"Team Fibonacci","org":"Northgo Colege","rookieYear":2019,"homeRegion":"NL","coords":{"lat":52.2463,"lng":4.4533}},{"number":17259,"name":"RoboVLC","org":"Veenlandencollege","rookieYear":2019,"homeRegion":"NL","coords":{"lat":52.206,"lng":4.8648}},{"number":17579,"name":"HU-Talent Bots","org":"Hogeschool Utrecht","rookieYear":2019,"homeRegion":"NL","coords":{"lat":52.1592,"lng":5.38}},{"number":17629,"name":"Q-Bots","org":"Johannes Fontanus College","rookieYear":2019,"homeRegion":"NL","coords":{"lat":52.1493,"lng":5.5807}},{"number":17651,"name":"The Probots","org":"Dalton Lyceum Barendrecht","rookieYear":2019,"homeRegion":"NL","coords":{"lat":51.8519,"lng":4.5294}},{"number":17652,"name":"Delta","org":"Willem van Oranje College","rookieYear":2019,"homeRegion":"NL","coords":{"lat":51.6832,"lng":5.0518}},{"number":18425,"name":"Ubbo Tech Team","org":"Ubbo Emmius Scholengemeenschap","rookieYear":2020,"homeRegion":"NL","coords":{"lat":53.2128,"lng":6.5661}},{"number":18859,"name":"Stanislas Tech Team","org":"Stanislascollege Westplantsoen","rookieYear":2020,"homeRegion":"NL","coords":{"lat":52.0085,"lng":4.3453}},{"number":18916,"name":"Cyber Team Doorn","org":"Revius Lyceum Doorn","rookieYear":2020,"homeRegion":"NL","coords":{"lat":52.0372,"lng":5.3252}},{"number":19393,"name":"Dummy team FTC Netherlands","org":"FTC Netherlands","rookieYear":2021,"homeRegion":"NL","coords":{"lat":51.4393,"lng":5.4786}},{"number":19444,"name":"Lorentz Engineering","org":"Lorentz Casimir Lyceum","rookieYear":2021,"homeRegion":"NL","coords":{"lat":51.4479,"lng":5.5085}},{"number":20091,"name":"Blood Sweat and Gears","org":"Maerlant Lyceum","rookieYear":2021,"homeRegion":"NL","coords":{"lat":52.092,"lng":4.3215}},{"number":20361,"name":"RoboRev","org":"Revius Lyceum Doorn","rookieYear":2021,"homeRegion":"NL","coords":{"lat":52.0372,"lng":5.3252}},{"number":20738,"name":"secbirdmachine 2","org":"d'Oultremontcollege","rookieYear":2021,"homeRegion":"NL","coords":{"lat":51.6425,"lng":5.131}},{"number":20792,"name":"Cybears","org":"International School of Amsterdam","rookieYear":2021,"homeRegion":"NL","coords":{"lat":52.2895,"lng":4.8607}},{"number":21218,"name":"SintLucas","org":"SintLucas","rookieYear":2021,"homeRegion":"NL","coords":{"lat":51.4393,"lng":5.4786}},{"number":21658,"name":"Kiwi","org":"Emmauscollege","rookieYear":2022,"homeRegion":"NL","coords":{"lat":51.9244,"lng":4.4778}},{"number":21983,"name":"The RoboRats","org":"Penta Jacob van Liesveldt","rookieYear":2022,"homeRegion":"NL","coords":{"lat":51.8417,"lng":4.1467}},{"number":22020,"name":"Gymnasium Haganum","org":"Gymnasium Haganum","rookieYear":2022,"homeRegion":"NL","coords":{"lat":52.0839,"lng":4.2912}},{"number":22052,"name":"Firda Force One","org":"Firda","rookieYear":2022,"homeRegion":"NL","coords":{"lat":53.1967,"lng":5.7984}},{"number":22173,"name":"Red Monkeys","org":"Buurtcollege Maas en Peel","rookieYear":2022,"homeRegion":"NL","coords":{"lat":51.3288,"lng":5.9819}},{"number":22223,"name":"Curio one","org":"Curio","rookieYear":2022,"homeRegion":"NL","coords":{"lat":51.5902,"lng":4.7896}},{"number":22224,"name":"Buzz Lightyear","org":"t Hooghelandt","rookieYear":2022,"homeRegion":"NL","coords":{"lat":52.1539,"lng":5.3741}},{"number":23014,"name":"The Flying Dutchman","org":"The American School of The Hague","rookieYear":2022,"homeRegion":"NL","coords":{"lat":52.1464,"lng":4.4229}},{"number":23252,"name":"FTC NEOBOTS","org":"Family/Community","rookieYear":2023,"homeRegion":"NL","coords":{"lat":51.5646,"lng":5.461}},{"number":23283,"name":"M-Mais","org":"Emmauscollege","rookieYear":2023,"homeRegion":"NL","coords":{"lat":51.9244,"lng":4.4778}},{"number":23294,"name":"Screw Looose Scientists","org":"Hessama Tech-Jeugd","rookieYear":2023,"homeRegion":"NL","coords":{"lat":51.4548,"lng":5.6279}},{"number":23309,"name":"Breul Future","org":"KSG De Breul","rookieYear":2023,"homeRegion":"NL","coords":{"lat":52.0878,"lng":5.2024}},{"number":23390,"name":"Dazzling Duckies","org":"Zwijsen College Veghel","rookieYear":2023,"homeRegion":"NL","coords":{"lat":51.6268,"lng":5.5404}},{"number":23417,"name":"The Energizers","org":"Wings Agora Roermond","rookieYear":2023,"homeRegion":"NL","coords":{"lat":51.1934,"lng":5.9883}},{"number":23452,"name":"TieWraps","org":"Heerbeeck College","rookieYear":2023,"homeRegion":"NL","coords":{"lat":51.4991,"lng":5.3822}},{"number":23525,"name":"Tech Campus De School","org":"Family/Community","rookieYear":2023,"homeRegion":"NL","coords":{"lat":52.2027,"lng":4.6312}},{"number":23846,"name":"Aeres Green Tech Frisians","org":"Aeres VMBO Buitenpost","rookieYear":2023,"homeRegion":"NL","coords":{"lat":53.254,"lng":6.1442}},{"number":23909,"name":"Raaybots","org":"Raayland College","rookieYear":2023,"homeRegion":"NL","coords":{"lat":51.5193,"lng":5.977}},{"number":24090,"name":"Trojan Robotics","org":"The American School of The Hague","rookieYear":2023,"homeRegion":"NL","coords":{"lat":52.1464,"lng":4.4229}},{"number":24138,"name":"TECH WIZARDS","org":"Curio","rookieYear":2023,"homeRegion":"NL","coords":{"lat":51.4945,"lng":4.2872}},{"number":24444,"name":"Spykers on low water","org":"Rijswijks Lyceum","rookieYear":2023,"homeRegion":"NL","coords":{"lat":52.0436,"lng":4.3121}},{"number":25905,"name":"Yellow IOT","org":"Junior IOT","rookieYear":2024,"homeRegion":"NL","coords":{"lat":52.6291,"lng":4.775}},{"number":26086,"name":"REborn","org":"Bornego College","rookieYear":2024,"homeRegion":"NL","coords":{"lat":52.953,"lng":5.9221}},{"number":26122,"name":"Moo Tech","org":"Roncalli scholengemeenschap","rookieYear":2024,"homeRegion":"NL","coords":{"lat":51.4945,"lng":4.2872}},{"number":26134,"name":"Screw Looose Scientists","org":"21st Century Learning Center","rookieYear":2024,"homeRegion":"NL","coords":{"lat":51.4217,"lng":5.5593}},{"number":26947,"name":"The Bladerunners","org":"Roer College Sch\u00f6ndeln","rookieYear":2024,"homeRegion":"NL","coords":{"lat":51.1708,"lng":6.0016}},{"number":27182,"name":"Frits Philips Robotics","org":"Frits Philips","rookieYear":2024,"homeRegion":"NL","coords":{"lat":51.4423,"lng":5.4657}},{"number":27312,"name":"De Campus Champs","org":"De Campus","rookieYear":2024,"homeRegion":"NL","coords":{"lat":51.5907,"lng":4.7617}},{"number":27579,"name":"Northern Nexus","org":"Helen Parkhurst","rookieYear":2024,"homeRegion":"NL","coords":{"lat":52.3751,"lng":5.2362}},{"number":27628,"name":"Beargineers","org":"International School of Amsterdam","rookieYear":2024,"homeRegion":"NL","coords":{"lat":52.2895,"lng":4.8607}},{"number":27675,"name":"Freedom Ltd.","org":"Revius Lyceum Doorn","rookieYear":2024,"homeRegion":"NL","coords":{"lat":52.0372,"lng":5.3252}},{"number":27684,"name":"Generic Robotics Club","org":"Gerrit Rietveldcollege","rookieYear":2024,"homeRegion":"NL","coords":{"lat":52.1601,"lng":5.2669}},{"number":27703,"name":"Badhamsters","org":"Gerrit Rietveldcollege","rookieYear":2024,"homeRegion":"NL","coords":{"lat":52.1601,"lng":5.2669}},{"number":27706,"name":"It worked yesterday","org":"Haags Montessori Lyceum","rookieYear":2024,"homeRegion":"NL","coords":{"lat":52.09,"lng":4.3214}},{"number":32200,"name":"Strooptech","org":"American School of the Hague","rookieYear":2025,"homeRegion":"NL","coords":{"lat":52.1464,"lng":4.4229}},{"number":32331,"name":"Techno Lions","org":"","rookieYear":2025,"homeRegion":"NL","coords":{"lat":51.3255,"lng":3.8403}},{"number":32423,"name":"Metal Munchers","org":"SG Augustinianum","rookieYear":2025,"homeRegion":"NL","coords":{"lat":51.4327,"lng":5.5002}},{"number":32634,"name":"RoBOATics","org":"","rookieYear":2025,"homeRegion":"NL","coords":{"lat":52.1436,"lng":4.371}},{"number":32722,"name":"JTeChmasters","org":"","rookieYear":2025,"homeRegion":"NL","coords":{"lat":51.5331,"lng":4.4561}},{"number":32730,"name":"Apex Automata","org":"Family/Community","rookieYear":2025,"homeRegion":"NL","coords":{"lat":52.9598,"lng":5.9232}},{"number":32767,"name":"Curacao","org":"","rookieYear":2025,"homeRegion":"NL","coords":{"lat":12.1067,"lng":-68.9351}},{"number":32771,"name":"Curacao Team 2","org":"","rookieYear":2025,"homeRegion":"NL","coords":{"lat":12.1067,"lng":-68.9351}},{"number":32772,"name":"Test team i dont understand","org":"","rookieYear":2025,"homeRegion":"NL","coords":{"lat":12.1067,"lng":-68.9351}},{"number":32773,"name":"Curacao Team new","org":"","rookieYear":2025,"homeRegion":"NL","coords":{"lat":12.1067,"lng":-68.9351}},{"number":32774,"name":"Test team 2","org":"","rookieYear":2025,"homeRegion":"NL","coords":{"lat":12.1067,"lng":-68.9351}},{"number":32775,"name":"Test e4","org":"","rookieYear":2025,"homeRegion":"NL","coords":{"lat":12.1067,"lng":-68.9351}},{"number":32776,"name":"Curacao OFIFCIAL","org":"","rookieYear":2025,"homeRegion":"NL","coords":{"lat":12.1067,"lng":-68.9351}},{"number":32855,"name":"Zipties","org":"","rookieYear":2025,"homeRegion":"NL","coords":{"lat":51.5034,"lng":5.3939}},{"number":33391,"name":"VLC TECH","org":"","rookieYear":2025,"homeRegion":"NL","coords":{"lat":52.206,"lng":4.8648}},{"number":33393,"name":"VLC VWO","org":"","rookieYear":2025,"homeRegion":"NL","coords":{"lat":52.206,"lng":4.8648}},{"number":33421,"name":"ISA ROBOTICS","org":"","rookieYear":2025,"homeRegion":"NL","coords":{"lat":52.3705,"lng":5.2186}},{"number":33536,"name":"Error 404: Team name not found","org":"","rookieYear":2025,"homeRegion":"NL","coords":{"lat":51.4791,"lng":5.6558}},{"number":3954,"name":"Pink to the Future","org":"Maerlant-Lyceum","rookieYear":2009,"homeRegion":"NL","coords":{"lat":52.092,"lng":4.3215}},{"number":3977,"name":"Stanislas Tech Team","org":"Stanislascollege","rookieYear":2009,"homeRegion":"NL","coords":{"lat":51.9976,"lng":4.3325}},{"number":10918,"name":"SPACE","org":"Newmancollege","rookieYear":2015,"homeRegion":"NL","coords":{"lat":51.5888,"lng":4.776}},{"number":12475,"name":"Chilling Chinchillas","org":"Zwijsen College Veghel","rookieYear":2016,"homeRegion":"NL","coords":{"lat":51.6268,"lng":5.5404}},{"number":12819,"name":"Shining Sheep","org":"Zwijsen College Veghel","rookieYear":2017,"homeRegion":"NL","coords":{"lat":51.6268,"lng":5.5404}},{"number":13953,"name":"Stanislas Tech Academy","org":"Stanislascollege","rookieYear":2017,"homeRegion":"NL","coords":{"lat":51.9976,"lng":4.3325}},{"number":14183,"name":"Dukes of Brabant","org":"Summa College","rookieYear":2017,"homeRegion":"NL","coords":{"lat":51.4666,"lng":5.4964}},{"number":14381,"name":"Knippin' Gears","org":"Dr.-Knippenbergcollege","rookieYear":2018,"homeRegion":"NL","coords":{"lat":51.4918,"lng":5.6669}},{"number":16382,"name":"Casimir Tech","org":"Lorentz Casimir Lyceum","rookieYear":2019,"homeRegion":"NL","coords":{"lat":51.4479,"lng":5.5085}},{"number":16383,"name":"Frits Philips Robotics team","org":"Frits Philips lyceum-mavo","rookieYear":2019,"homeRegion":"NL","coords":{"lat":51.4773,"lng":5.4473}},{"number":16402,"name":"Panic Attack","org":"Gymnasium Beekvliet","rookieYear":2019,"homeRegion":"NL","coords":{"lat":51.6419,"lng":5.3647}},{"number":16409,"name":"Team Orange","org":"Newmancollege","rookieYear":2019,"homeRegion":"NL","coords":{"lat":51.5888,"lng":4.776}},{"number":16410,"name":"GentleBotz","org":"Newmancollege","rookieYear":2019,"homeRegion":"NL","coords":{"lat":51.5888,"lng":4.776}},{"number":16441,"name":"Pretty Smart Robotics","org":"Science & Robotics vereniging Pretty Smart/JC Electronics/BOIKON/RSG de Borgen-Woldborg & Family/Community","rookieYear":2019,"homeRegion":"NL","coords":{"lat":53.2202,"lng":6.3067}},{"number":16785,"name":"Team ProBotiX","org":"Pius X College","rookieYear":2019,"homeRegion":"NL","coords":{"lat":51.3732,"lng":5.2325}},{"number":16788,"name":"The Encrypted Gentlemen","org":"Sondervick College","rookieYear":2019,"homeRegion":"NL","coords":{"lat":51.4041,"lng":5.383}},{"number":16850,"name":"Breul-1","org":"KSG de Breul","rookieYear":2019,"homeRegion":"NL","coords":{"lat":52.0878,"lng":5.2024}},{"number":16977,"name":"Roboni Forever","org":"St. Bonifatiuscollege","rookieYear":2019,"homeRegion":"NL","coords":{"lat":52.0825,"lng":5.1363}},{"number":17134,"name":"Zappp","org":"Tech Playgrounds - Dynamo Youthworks","rookieYear":2019,"homeRegion":"NL","coords":{"lat":51.4393,"lng":5.4786}},{"number":17227,"name":"Roboni Rookies","org":"St. Bonifatiuscollege","rookieYear":2019,"homeRegion":"NL","coords":{"lat":52.0825,"lng":5.1363}},{"number":17258,"name":"Team Fibonacci","org":"Northgo Colege","rookieYear":2019,"homeRegion":"NL","coords":{"lat":52.2463,"lng":4.4533}},{"number":17259,"name":"RoboVLC","org":"Veenlandencollege","rookieYear":2019,"homeRegion":"NL","coords":{"lat":52.206,"lng":4.8648}},{"number":17579,"name":"HU-Talent Bots","org":"Hogeschool Utrecht","rookieYear":2019,"homeRegion":"NL","coords":{"lat":52.1592,"lng":5.38}},{"number":17629,"name":"Q-Bots","org":"Johannes Fontanus College","rookieYear":2019,"homeRegion":"NL","coords":{"lat":52.1493,"lng":5.5807}},{"number":17651,"name":"The Probots","org":"Dalton Lyceum Barendrecht","rookieYear":2019,"homeRegion":"NL","coords":{"lat":51.8519,"lng":4.5294}},{"number":17652,"name":"Delta","org":"Willem van Oranje College","rookieYear":2019,"homeRegion":"NL","coords":{"lat":51.6832,"lng":5.0518}},{"number":18425,"name":"Ubbo Tech Team","org":"Ubbo Emmius Scholengemeenschap","rookieYear":2020,"homeRegion":"NL","coords":{"lat":53.2128,"lng":6.5661}},{"number":18859,"name":"Stanislas Tech Team","org":"Stanislascollege Westplantsoen","rookieYear":2020,"homeRegion":"NL","coords":{"lat":52.0085,"lng":4.3453}},{"number":18916,"name":"Cyber Team Doorn","org":"Revius Lyceum Doorn","rookieYear":2020,"homeRegion":"NL","coords":{"lat":52.0372,"lng":5.3252}},{"number":19393,"name":"Dummy team FTC Netherlands","org":"FTC Netherlands","rookieYear":2021,"homeRegion":"NL","coords":{"lat":51.4393,"lng":5.4786}},{"number":19444,"name":"Lorentz Engineering","org":"Lorentz Casimir Lyceum","rookieYear":2021,"homeRegion":"NL","coords":{"lat":51.4479,"lng":5.5085}},{"number":20091,"name":"Blood Sweat and Gears","org":"Maerlant Lyceum","rookieYear":2021,"homeRegion":"NL","coords":{"lat":52.092,"lng":4.3215}},{"number":20361,"name":"RoboRev","org":"Revius Lyceum Doorn","rookieYear":2021,"homeRegion":"NL","coords":{"lat":52.0372,"lng":5.3252}},{"number":20738,"name":"secbirdmachine 2","org":"d'Oultremontcollege","rookieYear":2021,"homeRegion":"NL","coords":{"lat":51.6425,"lng":5.131}},{"number":20792,"name":"Cybears","org":"International School of Amsterdam","rookieYear":2021,"homeRegion":"NL","coords":{"lat":52.2895,"lng":4.8607}},{"number":21218,"name":"SintLucas","org":"SintLucas","rookieYear":2021,"homeRegion":"NL","coords":{"lat":51.4393,"lng":5.4786}},{"number":21658,"name":"Kiwi","org":"Emmauscollege","rookieYear":2022,"homeRegion":"NL","coords":{"lat":51.9244,"lng":4.4778}},{"number":21983,"name":"The RoboRats","org":"Penta Jacob van Liesveldt","rookieYear":2022,"homeRegion":"NL","coords":{"lat":51.8417,"lng":4.1467}},{"number":22020,"name":"Gymnasium Haganum","org":"Gymnasium Haganum","rookieYear":2022,"homeRegion":"NL","coords":{"lat":52.0839,"lng":4.2912}},{"number":22052,"name":"Firda Force One","org":"Firda","rookieYear":2022,"homeRegion":"NL","coords":{"lat":53.1967,"lng":5.7984}},{"number":22173,"name":"Red Monkeys","org":"Buurtcollege Maas en Peel","rookieYear":2022,"homeRegion":"NL","coords":{"lat":51.3288,"lng":5.9819}},{"number":22223,"name":"Curio one","org":"Curio","rookieYear":2022,"homeRegion":"NL","coords":{"lat":51.5902,"lng":4.7896}},{"number":22224,"name":"Buzz Lightyear","org":"t Hooghelandt","rookieYear":2022,"homeRegion":"NL","coords":{"lat":52.1539,"lng":5.3741}},{"number":23014,"name":"The Flying Dutchman","org":"The American School of The Hague","rookieYear":2022,"homeRegion":"NL","coords":{"lat":52.1464,"lng":4.4229}},{"number":23252,"name":"FTC NEOBOTS","org":"Family/Community","rookieYear":2023,"homeRegion":"NL","coords":{"lat":51.5646,"lng":5.461}},{"number":23283,"name":"M-Mais","org":"Emmauscollege","rookieYear":2023,"homeRegion":"NL","coords":{"lat":51.9244,"lng":4.4778}},{"number":23294,"name":"Screw Looose Scientists","org":"Hessama Tech-Jeugd","rookieYear":2023,"homeRegion":"NL","coords":{"lat":51.4548,"lng":5.6279}},{"number":23309,"name":"Breul Future","org":"KSG De Breul","rookieYear":2023,"homeRegion":"NL","coords":{"lat":52.0878,"lng":5.2024}},{"number":23390,"name":"Dazzling Duckies","org":"Zwijsen College Veghel","rookieYear":2023,"homeRegion":"NL","coords":{"lat":51.6268,"lng":5.5404}},{"number":23417,"name":"The Energizers","org":"Wings Agora Roermond","rookieYear":2023,"homeRegion":"NL","coords":{"lat":51.1934,"lng":5.9883}},{"number":23452,"name":"TieWraps","org":"Heerbeeck College","rookieYear":2023,"homeRegion":"NL","coords":{"lat":51.4991,"lng":5.3822}},{"number":23525,"name":"Tech Campus De School","org":"Family/Community","rookieYear":2023,"homeRegion":"NL","coords":{"lat":52.2027,"lng":4.6312}},{"number":23846,"name":"Aeres Green Tech Frisians","org":"Aeres VMBO Buitenpost","rookieYear":2023,"homeRegion":"NL","coords":{"lat":53.254,"lng":6.1442}},{"number":23909,"name":"Raaybots","org":"Raayland College","rookieYear":2023,"homeRegion":"NL","coords":{"lat":51.5193,"lng":5.977}},{"number":24090,"name":"Trojan Robotics","org":"The American School of The Hague","rookieYear":2023,"homeRegion":"NL","coords":{"lat":52.1464,"lng":4.4229}},{"number":24138,"name":"TECH WIZARDS","org":"Curio","rookieYear":2023,"homeRegion":"NL","coords":{"lat":51.4945,"lng":4.2872}},{"number":24444,"name":"Spykers on low water","org":"Rijswijks Lyceum","rookieYear":2023,"homeRegion":"NL","coords":{"lat":52.0436,"lng":4.3121}},{"number":25905,"name":"Yellow IOT","org":"Junior IOT","rookieYear":2024,"homeRegion":"NL","coords":{"lat":52.6291,"lng":4.775}},{"number":26086,"name":"REborn","org":"Bornego College","rookieYear":2024,"homeRegion":"NL","coords":{"lat":52.953,"lng":5.9221}},{"number":26122,"name":"Moo Tech","org":"Roncalli scholengemeenschap","rookieYear":2024,"homeRegion":"NL","coords":{"lat":51.4945,"lng":4.2872}},{"number":26134,"name":"Screw Looose Scientists","org":"21st Century Learning Center","rookieYear":2024,"homeRegion":"NL","coords":{"lat":51.4217,"lng":5.5593}},{"number":26947,"name":"The Bladerunners","org":"Roer College Sch\u00f6ndeln","rookieYear":2024,"homeRegion":"NL","coords":{"lat":51.1708,"lng":6.0016}},{"number":27182,"name":"Frits Philips Robotics","org":"Frits Philips","rookieYear":2024,"homeRegion":"NL","coords":{"lat":51.4423,"lng":5.4657}},{"number":27312,"name":"De Campus Champs","org":"De Campus","rookieYear":2024,"homeRegion":"NL","coords":{"lat":51.5907,"lng":4.7617}},{"number":27579,"name":"Northern Nexus","org":"Helen Parkhurst","rookieYear":2024,"homeRegion":"NL","coords":{"lat":52.3751,"lng":5.2362}},{"number":27628,"name":"Beargineers","org":"International School of Amsterdam","rookieYear":2024,"homeRegion":"NL","coords":{"lat":52.2895,"lng":4.8607}},{"number":27675,"name":"Freedom Ltd.","org":"Revius Lyceum Doorn","rookieYear":2024,"homeRegion":"NL","coords":{"lat":52.0372,"lng":5.3252}},{"number":27684,"name":"Generic Robotics Club","org":"Gerrit Rietveldcollege","rookieYear":2024,"homeRegion":"NL","coords":{"lat":52.1601,"lng":5.2669}},{"number":27703,"name":"Badhamsters","org":"Gerrit Rietveldcollege","rookieYear":2024,"homeRegion":"NL","coords":{"lat":52.1601,"lng":5.2669}},{"number":27706,"name":"It worked yesterday","org":"Haags Montessori Lyceum","rookieYear":2024,"homeRegion":"NL","coords":{"lat":52.09,"lng":4.3214}},{"number":32200,"name":"Strooptech","org":"American School of the Hague","rookieYear":2025,"homeRegion":"NL","coords":{"lat":52.1464,"lng":4.4229}},{"number":32331,"name":"Techno Lions","org":"","rookieYear":2025,"homeRegion":"NL","coords":{"lat":51.3255,"lng":3.8403}},{"number":32423,"name":"Metal Munchers","org":"SG Augustinianum","rookieYear":2025,"homeRegion":"NL","coords":{"lat":51.4327,"lng":5.5002}},{"number":32634,"name":"RoBOATics","org":"","rookieYear":2025,"homeRegion":"NL","coords":{"lat":52.1436,"lng":4.371}},{"number":32722,"name":"JTeChmasters","org":"","rookieYear":2025,"homeRegion":"NL","coords":{"lat":51.5331,"lng":4.4561}},{"number":32730,"name":"Apex Automata","org":"Family/Community","rookieYear":2025,"homeRegion":"NL","coords":{"lat":52.9598,"lng":5.9232}},{"number":32767,"name":"Curacao","org":"","rookieYear":2025,"homeRegion":"NL","coords":{"lat":12.1067,"lng":-68.9351}},{"number":32771,"name":"Curacao Team 2","org":"","rookieYear":2025,"homeRegion":"NL","coords":{"lat":12.1067,"lng":-68.9351}},{"number":32772,"name":"Test team i dont understand","org":"","rookieYear":2025,"homeRegion":"NL","coords":{"lat":12.1067,"lng":-68.9351}},{"number":32773,"name":"Curacao Team new","org":"","rookieYear":2025,"homeRegion":"NL","coords":{"lat":12.1067,"lng":-68.9351}},{"number":32774,"name":"Test team 2","org":"","rookieYear":2025,"homeRegion":"NL","coords":{"lat":12.1067,"lng":-68.9351}},{"number":32775,"name":"Test e4","org":"","rookieYear":2025,"homeRegion":"NL","coords":{"lat":12.1067,"lng":-68.9351}},{"number":32776,"name":"Curacao OFIFCIAL","org":"","rookieYear":2025,"homeRegion":"NL","coords":{"lat":12.1067,"lng":-68.9351}},{"number":32855,"name":"Zipties","org":"","rookieYear":2025,"homeRegion":"NL","coords":{"lat":51.5034,"lng":5.3939}},{"number":33391,"name":"VLC TECH","org":"","rookieYear":2025,"homeRegion":"NL","coords":{"lat":52.206,"lng":4.8648}},{"number":33393,"name":"VLC VWO","org":"","rookieYear":2025,"homeRegion":"NL","coords":{"lat":52.206,"lng":4.8648}},{"number":33421,"name":"ISA ROBOTICS","org":"","rookieYear":2025,"homeRegion":"NL","coords":{"lat":52.3705,"lng":5.2186}},{"number":33536,"name":"Error 404: Team name not found","org":"","rookieYear":2025,"homeRegion":"NL","coords":{"lat":51.4791,"lng":5.6558}},{"number":3954,"name":"Pink to the Future","org":"Maerlant-Lyceum","rookieYear":2009,"homeRegion":"NL","coords":{"lat":52.092,"lng":4.3215}},{"number":3977,"name":"Stanislas Tech Team","org":"Stanislascollege","rookieYear":2009,"homeRegion":"NL","coords":{"lat":51.9976,"lng":4.3325}},{"number":10918,"name":"SPACE","org":"Newmancollege","rookieYear":2015,"homeRegion":"NL","coords":{"lat":51.5888,"lng":4.776}},{"number":12475,"name":"Chilling Chinchillas","org":"Zwijsen College Veghel","rookieYear":2016,"homeRegion":"NL","coords":{"lat":51.6268,"lng":5.5404}},{"number":12819,"name":"Shining Sheep","org":"Zwijsen College Veghel","rookieYear":2017,"homeRegion":"NL","coords":{"lat":51.6268,"lng":5.5404}},{"number":13953,"name":"Stanislas Tech Academy","org":"Stanislascollege","rookieYear":2017,"homeRegion":"NL","coords":{"lat":51.9976,"lng":4.3325}},{"number":14183,"name":"Dukes of Brabant","org":"Summa College","rookieYear":2017,"homeRegion":"NL","coords":{"lat":51.4666,"lng":5.4964}},{"number":14381,"name":"Knippin' Gears","org":"Dr.-Knippenbergcollege","rookieYear":2018,"homeRegion":"NL","coords":{"lat":51.4918,"lng":5.6669}},{"number":16382,"name":"Casimir Tech","org":"Lorentz Casimir Lyceum","rookieYear":2019,"homeRegion":"NL","coords":{"lat":51.4479,"lng":5.5085}},{"number":16383,"name":"Frits Philips Robotics team","org":"Frits Philips lyceum-mavo","rookieYear":2019,"homeRegion":"NL","coords":{"lat":51.4773,"lng":5.4473}},{"number":16402,"name":"Panic Attack","org":"Gymnasium Beekvliet","rookieYear":2019,"homeRegion":"NL","coords":{"lat":51.6419,"lng":5.3647}},{"number":16409,"name":"Team Orange","org":"Newmancollege","rookieYear":2019,"homeRegion":"NL","coords":{"lat":51.5888,"lng":4.776}},{"number":16410,"name":"GentleBotz","org":"Newmancollege","rookieYear":2019,"homeRegion":"NL","coords":{"lat":51.5888,"lng":4.776}},{"number":16441,"name":"Pretty Smart Robotics","org":"Science & Robotics vereniging Pretty Smart/JC Electronics/BOIKON/RSG de Borgen-Woldborg & Family/Community","rookieYear":2019,"homeRegion":"NL","coords":{"lat":53.2202,"lng":6.3067}},{"number":16785,"name":"Team ProBotiX","org":"Pius X College","rookieYear":2019,"homeRegion":"NL","coords":{"lat":51.3732,"lng":5.2325}},{"number":16788,"name":"The Encrypted Gentlemen","org":"Sondervick College","rookieYear":2019,"homeRegion":"NL","coords":{"lat":51.4041,"lng":5.383}},{"number":16850,"name":"Breul-1","org":"KSG de Breul","rookieYear":2019,"homeRegion":"NL","coords":{"lat":52.0878,"lng":5.2024}},{"number":16977,"name":"Roboni Forever","org":"St. Bonifatiuscollege","rookieYear":2019,"homeRegion":"NL","coords":{"lat":52.0825,"lng":5.1363}},{"number":17134,"name":"Zappp","org":"Tech Playgrounds - Dynamo Youthworks","rookieYear":2019,"homeRegion":"NL","coords":{"lat":51.4393,"lng":5.4786}},{"number":17227,"name":"Roboni Rookies","org":"St. Bonifatiuscollege","rookieYear":2019,"homeRegion":"NL","coords":{"lat":52.0825,"lng":5.1363}},{"number":17258,"name":"Team Fibonacci","org":"Northgo Colege","rookieYear":2019,"homeRegion":"NL","coords":{"lat":52.2463,"lng":4.4533}},{"number":17259,"name":"RoboVLC","org":"Veenlandencollege","rookieYear":2019,"homeRegion":"NL","coords":{"lat":52.206,"lng":4.8648}},{"number":17579,"name":"HU-Talent Bots","org":"Hogeschool Utrecht","rookieYear":2019,"homeRegion":"NL","coords":{"lat":52.1592,"lng":5.38}},{"number":17629,"name":"Q-Bots","org":"Johannes Fontanus College","rookieYear":2019,"homeRegion":"NL","coords":{"lat":52.1493,"lng":5.5807}},{"number":17651,"name":"The Probots","org":"Dalton Lyceum Barendrecht","rookieYear":2019,"homeRegion":"NL","coords":{"lat":51.8519,"lng":4.5294}},{"number":17652,"name":"Delta","org":"Willem van Oranje College","rookieYear":2019,"homeRegion":"NL","coords":{"lat":51.6832,"lng":5.0518}},{"number":18425,"name":"Ubbo Tech Team","org":"Ubbo Emmius Scholengemeenschap","rookieYear":2020,"homeRegion":"NL","coords":{"lat":53.2128,"lng":6.5661}},{"number":18859,"name":"Stanislas Tech Team","org":"Stanislascollege Westplantsoen","rookieYear":2020,"homeRegion":"NL","coords":{"lat":52.0085,"lng":4.3453}},{"number":18916,"name":"Cyber Team Doorn","org":"Revius Lyceum Doorn","rookieYear":2020,"homeRegion":"NL","coords":{"lat":52.0372,"lng":5.3252}},{"number":19393,"name":"Dummy team FTC Netherlands","org":"FTC Netherlands","rookieYear":2021,"homeRegion":"NL","coords":{"lat":51.4393,"lng":5.4786}},{"number":19444,"name":"Lorentz Engineering","org":"Lorentz Casimir Lyceum","rookieYear":2021,"homeRegion":"NL","coords":{"lat":51.4479,"lng":5.5085}},{"number":20091,"name":"Blood Sweat and Gears","org":"Maerlant Lyceum","rookieYear":2021,"homeRegion":"NL","coords":{"lat":52.092,"lng":4.3215}},{"number":20361,"name":"RoboRev","org":"Revius Lyceum Doorn","rookieYear":2021,"homeRegion":"NL","coords":{"lat":52.0372,"lng":5.3252}},{"number":20738,"name":"secbirdmachine 2","org":"d'Oultremontcollege","rookieYear":2021,"homeRegion":"NL","coords":{"lat":51.6425,"lng":5.131}},{"number":20792,"name":"Cybears","org":"International School of Amsterdam","rookieYear":2021,"homeRegion":"NL","coords":{"lat":52.2895,"lng":4.8607}},{"number":21218,"name":"SintLucas","org":"SintLucas","rookieYear":2021,"homeRegion":"NL","coords":{"lat":51.4393,"lng":5.4786}},{"number":21658,"name":"Kiwi","org":"Emmauscollege","rookieYear":2022,"homeRegion":"NL","coords":{"lat":51.9244,"lng":4.4778}},{"number":21983,"name":"The RoboRats","org":"Penta Jacob van Liesveldt","rookieYear":2022,"homeRegion":"NL","coords":{"lat":51.8417,"lng":4.1467}},{"number":22020,"name":"Gymnasium Haganum","org":"Gymnasium Haganum","rookieYear":2022,"homeRegion":"NL","coords":{"lat":52.0839,"lng":4.2912}},{"number":22052,"name":"Firda Force One","org":"Firda","rookieYear":2022,"homeRegion":"NL","coords":{"lat":53.1967,"lng":5.7984}},{"number":22173,"name":"Red Monkeys","org":"Buurtcollege Maas en Peel","rookieYear":2022,"homeRegion":"NL","coords":{"lat":51.3288,"lng":5.9819}},{"number":22223,"name":"Curio one","org":"Curio","rookieYear":2022,"homeRegion":"NL","coords":{"lat":51.5902,"lng":4.7896}},{"number":22224,"name":"Buzz Lightyear","org":"t Hooghelandt","rookieYear":2022,"homeRegion":"NL","coords":{"lat":52.1539,"lng":5.3741}},{"number":23014,"name":"The Flying Dutchman","org":"The American School of The Hague","rookieYear":2022,"homeRegion":"NL","coords":{"lat":52.1464,"lng":4.4229}},{"number":23252,"name":"FTC NEOBOTS","org":"Family/Community","rookieYear":2023,"homeRegion":"NL","coords":{"lat":51.5646,"lng":5.461}},{"number":23283,"name":"M-Mais","org":"Emmauscollege","rookieYear":2023,"homeRegion":"NL","coords":{"lat":51.9244,"lng":4.4778}},{"number":23294,"name":"Screw Looose Scientists","org":"Hessama Tech-Jeugd","rookieYear":2023,"homeRegion":"NL","coords":{"lat":51.4548,"lng":5.6279}},{"number":23309,"name":"Breul Future","org":"KSG De Breul","rookieYear":2023,"homeRegion":"NL","coords":{"lat":52.0878,"lng":5.2024}},{"number":23390,"name":"Dazzling Duckies","org":"Zwijsen College Veghel","rookieYear":2023,"homeRegion":"NL","coords":{"lat":51.6268,"lng":5.5404}},{"number":23417,"name":"The Energizers","org":"Wings Agora Roermond","rookieYear":2023,"homeRegion":"NL","coords":{"lat":51.1934,"lng":5.9883}},{"number":23452,"name":"TieWraps","org":"Heerbeeck College","rookieYear":2023,"homeRegion":"NL","coords":{"lat":51.4991,"lng":5.3822}},{"number":23525,"name":"Tech Campus De School","org":"Family/Community","rookieYear":2023,"homeRegion":"NL","coords":{"lat":52.2027,"lng":4.6312}},{"number":23846,"name":"Aeres Green Tech Frisians","org":"Aeres VMBO Buitenpost","rookieYear":2023,"homeRegion":"NL","coords":{"lat":53.254,"lng":6.1442}},{"number":23909,"name":"Raaybots","org":"Raayland College","rookieYear":2023,"homeRegion":"NL","coords":{"lat":51.5193,"lng":5.977}},{"number":24090,"name":"Trojan Robotics","org":"The American School of The Hague","rookieYear":2023,"homeRegion":"NL","coords":{"lat":52.1464,"lng":4.4229}},{"number":24138,"name":"TECH WIZARDS","org":"Curio","rookieYear":2023,"homeRegion":"NL","coords":{"lat":51.4945,"lng":4.2872}},{"number":24444,"name":"Spykers on low water","org":"Rijswijks Lyceum","rookieYear":2023,"homeRegion":"NL","coords":{"lat":52.0436,"lng":4.3121}},{"number":25905,"name":"Yellow IOT","org":"Junior IOT","rookieYear":2024,"homeRegion":"NL","coords":{"lat":52.6291,"lng":4.775}},{"number":26086,"name":"REborn","org":"Bornego College","rookieYear":2024,"homeRegion":"NL","coords":{"lat":52.953,"lng":5.9221}},{"number":26122,"name":"Moo Tech","org":"Roncalli scholengemeenschap","rookieYear":2024,"homeRegion":"NL","coords":{"lat":51.4945,"lng":4.2872}},{"number":26134,"name":"Screw Looose Scientists","org":"21st Century Learning Center","rookieYear":2024,"homeRegion":"NL","coords":{"lat":51.4217,"lng":5.5593}},{"number":26947,"name":"The Bladerunners","org":"Roer College Sch\u00f6ndeln","rookieYear":2024,"homeRegion":"NL","coords":{"lat":51.1708,"lng":6.0016}},{"number":27182,"name":"Frits Philips Robotics","org":"Frits Philips","rookieYear":2024,"homeRegion":"NL","coords":{"lat":51.4423,"lng":5.4657}},{"number":27312,"name":"De Campus Champs","org":"De Campus","rookieYear":2024,"homeRegion":"NL","coords":{"lat":51.5907,"lng":4.7617}},{"number":27579,"name":"Northern Nexus","org":"Helen Parkhurst","rookieYear":2024,"homeRegion":"NL","coords":{"lat":52.3751,"lng":5.2362}},{"number":27628,"name":"Beargineers","org":"International School of Amsterdam","rookieYear":2024,"homeRegion":"NL","coords":{"lat":52.2895,"lng":4.8607}},{"number":27675,"name":"Freedom Ltd.","org":"Revius Lyceum Doorn","rookieYear":2024,"homeRegion":"NL","coords":{"lat":52.0372,"lng":5.3252}},{"number":27684,"name":"Generic Robotics Club","org":"Gerrit Rietveldcollege","rookieYear":2024,"homeRegion":"NL","coords":{"lat":52.1601,"lng":5.2669}},{"number":27703,"name":"Badhamsters","org":"Gerrit Rietveldcollege","rookieYear":2024,"homeRegion":"NL","coords":{"lat":52.1601,"lng":5.2669}},{"number":27706,"name":"It worked yesterday","org":"Haags Montessori Lyceum","rookieYear":2024,"homeRegion":"NL","coords":{"lat":52.09,"lng":4.3214}},{"number":32200,"name":"Strooptech","org":"American School of the Hague","rookieYear":2025,"homeRegion":"NL","coords":{"lat":52.1464,"lng":4.4229}},{"number":32331,"name":"Techno Lions","org":"","rookieYear":2025,"homeRegion":"NL","coords":{"lat":51.3255,"lng":3.8403}},{"number":32423,"name":"Metal Munchers","org":"SG Augustinianum","rookieYear":2025,"homeRegion":"NL","coords":{"lat":51.4327,"lng":5.5002}},{"number":32634,"name":"RoBOATics","org":"","rookieYear":2025,"homeRegion":"NL","coords":{"lat":52.1436,"lng":4.371}},{"number":32722,"name":"JTeChmasters","org":"","rookieYear":2025,"homeRegion":"NL","coords":{"lat":51.5331,"lng":4.4561}},{"number":32730,"name":"Apex Automata","org":"Family/Community","rookieYear":2025,"homeRegion":"NL","coords":{"lat":52.9598,"lng":5.9232}},{"number":32767,"name":"Curacao","org":"","rookieYear":2025,"homeRegion":"NL","coords":{"lat":12.1067,"lng":-68.9351}},{"number":32771,"name":"Curacao Team 2","org":"","rookieYear":2025,"homeRegion":"NL","coords":{"lat":12.1067,"lng":-68.9351}},{"number":32772,"name":"Test team i dont understand","org":"","rookieYear":2025,"homeRegion":"NL","coords":{"lat":12.1067,"lng":-68.9351}},{"number":32773,"name":"Curacao Team new","org":"","rookieYear":2025,"homeRegion":"NL","coords":{"lat":12.1067,"lng":-68.9351}},{"number":32774,"name":"Test team 2","org":"","rookieYear":2025,"homeRegion":"NL","coords":{"lat":12.1067,"lng":-68.9351}},{"number":32775,"name":"Test e4","org":"","rookieYear":2025,"homeRegion":"NL","coords":{"lat":12.1067,"lng":-68.9351}},{"number":32776,"name":"Curacao OFIFCIAL","org":"","rookieYear":2025,"homeRegion":"NL","coords":{"lat":12.1067,"lng":-68.9351}},{"number":32855,"name":"Zipties","org":"","rookieYear":2025,"homeRegion":"NL","coords":{"lat":51.5034,"lng":5.3939}},{"number":33391,"name":"VLC TECH","org":"","rookieYear":2025,"homeRegion":"NL","coords":{"lat":52.206,"lng":4.8648}},{"number":33393,"name":"VLC VWO","org":"","rookieYear":2025,"homeRegion":"NL","coords":{"lat":52.206,"lng":4.8648}},{"number":33421,"name":"ISA ROBOTICS","org":"","rookieYear":2025,"homeRegion":"NL","coords":{"lat":52.3705,"lng":5.2186}},{"number":33536,"name":"Error 404: Team name not found","org":"","rookieYear":2025,"homeRegion":"NL","coords":{"lat":51.4791,"lng":5.6558}}],"events":[{"code":"","name":"European Premier Event","typeName":"Premier","venue":"Indoor-Sportcentrum Eindhoven","dateStart":"2026-06-17T00:00:00","dateEnd":"2026-06-20T00:00:00","regionCode":"FPE","coords":{"lat":5.48132,"lng":51.41286}},{"code":"","name":"Qualifier Bladel","typeName":"Qualifier","venue":"Pius X-College","dateStart":"2026-01-10T00:00:00","dateEnd":"2026-01-10T00:00:00","regionCode":"NL","coords":{"lat":5.23035,"lng":51.37206}},{"code":"","name":"Qualifier Breda","typeName":"Qualifier","venue":"Avans University of Applied Sciences","dateStart":"2025-12-13T00:00:00","dateEnd":"2025-12-13T00:00:00","regionCode":"NL","coords":{"lat":4.79711,"lng":51.5837}},{"code":"","name":"Benelux Championship","typeName":"Championship","venue":"American School of The Hague","dateStart":"2026-02-07T00:00:00","dateEnd":"2026-02-07T00:00:00","regionCode":"NL","coords":{"lat":4.42195,"lng":52.14624}},{"code":"","name":"Scrimmage Delft","typeName":"Scrimmage","venue":"Stanislascollege Westplantsoen","dateStart":"2025-11-15T00:00:00","dateEnd":"2025-11-15T00:00:00","regionCode":"NL","coords":{"lat":4.34519,"lng":52.00841}},{"code":"","name":"Benelux Kickoff","typeName":"Kickoff","venue":"Koning Willem I College","dateStart":"2025-09-06T00:00:00","dateEnd":"2025-09-06T00:00:00","regionCode":"NL","coords":{"lat":5.28683,"lng":51.69092}},{"code":"","name":"Scrimmage Noordwijk","typeName":"Scrimmage","venue":"Northgo College","dateStart":"2025-11-22T00:00:00","dateEnd":"2025-11-22T00:00:00","regionCode":"NL","coords":{"lat":4.448,"lng":52.24295}},{"code":"","name":"Scrimmage Roermond","typeName":"Scrimmage","venue":"Wings Agora Roermond","dateStart":"2025-11-23T00:00:00","dateEnd":"2025-11-23T00:00:00","regionCode":"NL","coords":{"lat":6.00718,"lng":51.19222}},{"code":"","name":"Qualifier The Hague","typeName":"Qualifier","venue":"Maerlant-lyceum","dateStart":"2025-12-06T00:00:00","dateEnd":"2025-12-06T00:00:00","regionCode":"NL","coords":{"lat":4.32187,"lng":52.09216}},{"code":"","name":"Qualifier Zeist","typeName":"Qualifier","venue":"KSG de Breul","dateStart":"2026-01-17T00:00:00","dateEnd":"2026-01-17T00:00:00","regionCode":"NL","coords":{"lat":5.25774,"lng":52.07203}}]}