{"generationTimestamp":"Wed, 07 Jan 2026 16:35:55 GMT","season":2025,"teams":[{"number":3954,"name":"Pink to the Future","org":"Maerlant-Lyceum","rookieYear":2009,"homeRegion":"NL","coords":{"lat":52.092,"lng":4.3215}},{"number":3977,"name":"Stanislas Tech Team","org":"Stanislascollege","rookieYear":2009,"homeRegion":"NL","coords":{"lat":51.9976,"lng":4.3325}},{"number":10183,"name":"F.R.O.G.  Frog Robots Of Germany","org":"Koenigin-Katharina-Stift","rookieYear":2015,"homeRegion":"NL","coords":{"lat":48.7815,"lng":9.1838}},{"number":10854,"name":"ASP Rebels","org":"American School of Paris","rookieYear":2015,"homeRegion":"FR","coords":{"lat":48.8406,"lng":2.1967}},{"number":10918,"name":"SPACE","org":"Newmancollege","rookieYear":2015,"homeRegion":"NL","coords":{"lat":51.5888,"lng":4.776}},{"number":11041,"name":"FalconTech","org":"International School of Prague","rookieYear":2015,"homeRegion":"NL","coords":{"lat":50.0864,"lng":14.4157}},{"number":11515,"name":"RobotIGS","org":"Georg-Christoph-Lichtenberg Gesamtschule","rookieYear":2016,"homeRegion":"DE","coords":{"lat":51.517,"lng":9.9491}},{"number":12463,"name":"KKST-KeepKeenShowTech","org":"K\u00f6nigin-Katharina-Stift","rookieYear":2016,"homeRegion":"NL","coords":{"lat":48.7815,"lng":9.1838}},{"number":12475,"name":"Chilling Chinchillas","org":"Zwijsen College Veghel","rookieYear":2016,"homeRegion":"NL","coords":{"lat":51.6268,"lng":5.5404}},{"number":12560,"name":"Soft Hoarders","org":"\"Fra\u0163ii Buze\u015fti\" National Collage ","rookieYear":2016,"homeRegion":"RO","coords":{"lat":44.3174,"lng":23.7991}},{"number":12632,"name":"Transilvania Robotix","org":"Ticon srl & Transilvania Robotix & Transilvania Robotix","rookieYear":2017,"homeRegion":"RO","coords":{"lat":46.7694,"lng":23.59}},{"number":12819,"name":"Shining Sheep","org":"Zwijsen College Veghel","rookieYear":2017,"homeRegion":"NL","coords":{"lat":51.6268,"lng":5.5404}},{"number":13906,"name":"Epiteugma Revved Up","org":"Home School","rookieYear":2017,"homeRegion":"CY","coords":{"lat":35.1491,"lng":33.3521}},{"number":13953,"name":"Stanislas Tech Academy","org":"Stanislascollege","rookieYear":2017,"homeRegion":"NL","coords":{"lat":51.9976,"lng":4.3325}},{"number":14144,"name":"EAGoose","org":"Ernst-Abbe-Gymnasium","rookieYear":2017,"homeRegion":"NL","coords":{"lat":52.4838,"lng":13.4377}},{"number":14183,"name":"Dukes of Brabant","org":"Summa College","rookieYear":2017,"homeRegion":"NL","coords":{"lat":51.4739,"lng":5.4446}},{"number":14270,"name":"Quantum Robotics","org":"International Computer High School of Bucharest","rookieYear":2017,"homeRegion":"RO","coords":{"lat":44.4087,"lng":26.2108}},{"number":14277,"name":"QUBE.","org":"'Mihai Viteazul' National College Bucharest","rookieYear":2017,"homeRegion":"RO","coords":{"lat":44.439,"lng":26.1243}},{"number":14278,"name":"Xeo","org":"National Highschool \"Horea, Closca si Crisan\" Alba Iulia","rookieYear":2017,"homeRegion":"RO","coords":{"lat":46.0665,"lng":23.5635}},{"number":14381,"name":"Knippin' Gears","org":"Dr.-Knippenbergcollege","rookieYear":2018,"homeRegion":"NL","coords":{"lat":51.4918,"lng":5.6669}},{"number":14438,"name":"Noosphere Robotics","org":"Family/Community","rookieYear":2018,"homeRegion":"UA","coords":{"lat":50.4909,"lng":30.5587}},{"number":15965,"name":"Esentza Robotics","org":"Colegiul Na\u0163ional Petru Rares ","rookieYear":2018,"homeRegion":"RO","coords":{"lat":47.1768,"lng":24.1766}},{"number":15966,"name":"Esentza Revolution","org":"Colegiul Na\u0163ional Petru Rares","rookieYear":2018,"homeRegion":"RO","coords":{"lat":47.1768,"lng":24.1766}},{"number":15972,"name":"TehnoZ","org":"Zinca Golescu","rookieYear":2018,"homeRegion":"RO","coords":{"lat":44.8533,"lng":24.8737}},{"number":15975,"name":"ROBOTX HUNEDOARA","org":"Liceul Teoretic \"Traian Lalescu\"","rookieYear":2018,"homeRegion":"RO","coords":{"lat":45.8647,"lng":22.9013}},{"number":15989,"name":"RoboTitans","org":"Colegiul National \"Sf. Sava\"","rookieYear":2018,"homeRegion":"RO","coords":{"lat":44.4413,"lng":26.0909}},{"number":15991,"name":"Gamma","org":"Colegiul National \"Sf. Sava\"","rookieYear":2018,"homeRegion":"RO","coords":{"lat":44.4413,"lng":26.0909}},{"number":15993,"name":"infO(1)Robotics","org":"National College \"Ion Luca Caragiale\" Ploie\u0219ti","rookieYear":2018,"homeRegion":"RO","coords":{"lat":44.945,"lng":26.0265}},{"number":15996,"name":"BrickBot","org":"Colegiul National Unirea","rookieYear":2018,"homeRegion":"RO","coords":{"lat":45.6979,"lng":27.1914}},{"number":16000,"name":"Gear Maniacs","org":"Colegiul National Samuel von Brukenthal","rookieYear":2018,"homeRegion":"RO","coords":{"lat":45.7973,"lng":24.1497}},{"number":16166,"name":"Watt'S Up","org":"Colegiul National \"Dinicu Golescu\"","rookieYear":2018,"homeRegion":"RO","coords":{"lat":45.2643,"lng":25.0408}},{"number":16382,"name":"Casimir Tech","org":"Lorentz Casimir Lyceum","rookieYear":2019,"homeRegion":"NL","coords":{"lat":51.4479,"lng":5.5085}},{"number":16383,"name":"Frits Philips Robotics team","org":"Frits Philips lyceum-mavo","rookieYear":2019,"homeRegion":"NL","coords":{"lat":51.4773,"lng":5.4473}},{"number":16402,"name":"Panic Attack","org":"Gymnasium Beekvliet","rookieYear":2019,"homeRegion":"NL","coords":{"lat":51.6419,"lng":5.3647}},{"number":16409,"name":"Team Orange","org":"Newmancollege","rookieYear":2019,"homeRegion":"NL","coords":{"lat":51.5888,"lng":4.776}},{"number":16410,"name":"GentleBotz","org":"Newmancollege","rookieYear":2019,"homeRegion":"NL","coords":{"lat":51.5888,"lng":4.776}},{"number":16441,"name":"Pretty Smart Robotics","org":"Science & Robotics vereniging Pretty Smart/JC Electronics/BOIKON/RSG de Borgen-Woldborg & Family/Community","rookieYear":2019,"homeRegion":"NL","coords":{"lat":53.2202,"lng":6.3067}},{"number":16476,"name":"Garfield","org":"K\u00f6nigin-Katharina-Stift","rookieYear":2019,"homeRegion":"NL","coords":{"lat":48.7815,"lng":9.1838}},{"number":16785,"name":"Team ProBotiX","org":"Pius X College","rookieYear":2019,"homeRegion":"NL","coords":{"lat":51.372,"lng":5.2318}},{"number":16788,"name":"The Encrypted Gentlemen","org":"Sondervick College","rookieYear":2019,"homeRegion":"NL","coords":{"lat":51.4041,"lng":5.383}},{"number":16850,"name":"Breul-1","org":"KSG de Breul","rookieYear":2019,"homeRegion":"NL","coords":{"lat":52.0878,"lng":5.2024}},{"number":16977,"name":"Roboni Forever","org":"St. Bonifatiuscollege","rookieYear":2019,"homeRegion":"NL","coords":{"lat":52.0825,"lng":5.1363}},{"number":17089,"name":"Powered by Redstone","org":"Open Gate School","rookieYear":2019,"homeRegion":"NL","coords":{"lat":50.0052,"lng":14.7158}},{"number":17134,"name":"Zappp","org":"Tech Playgrounds - Dynamo Youthworks","rookieYear":2019,"homeRegion":"NL","coords":{"lat":51.4393,"lng":5.4786}},{"number":17227,"name":"Roboni Rookies","org":"St. Bonifatiuscollege","rookieYear":2019,"homeRegion":"NL","coords":{"lat":52.0825,"lng":5.1363}},{"number":17258,"name":"Team Fibonacci","org":"Northgo Colege","rookieYear":2019,"homeRegion":"NL","coords":{"lat":52.2463,"lng":4.4533}},{"number":17259,"name":"RoboVLC","org":"Veenlandencollege","rookieYear":2019,"homeRegion":"NL","coords":{"lat":52.206,"lng":4.8648}},{"number":17532,"name":"Centered Robotics","org":"Paradis International College","rookieYear":2019,"homeRegion":"RO","coords":{"lat":47.1799,"lng":27.6204}},{"number":17579,"name":"HU-Talent Bots","org":"Hogeschool Utrecht","rookieYear":2019,"homeRegion":"NL","coords":{"lat":52.1592,"lng":5.38}},{"number":17624,"name":"IGNITE.","org":"Colegiul National \"Mihai Viteazul\"","rookieYear":2019,"homeRegion":"RO","coords":{"lat":44.439,"lng":26.1243}},{"number":17629,"name":"Q-Bots","org":"Johannes Fontanus College","rookieYear":2019,"homeRegion":"NL","coords":{"lat":52.1493,"lng":5.5807}},{"number":17651,"name":"The Probots","org":"Dalton Lyceum Barendrecht","rookieYear":2019,"homeRegion":"NL","coords":{"lat":51.8519,"lng":4.5294}},{"number":17652,"name":"Delta","org":"Willem van Oranje College","rookieYear":2019,"homeRegion":"NL","coords":{"lat":51.6832,"lng":5.0518}},{"number":17713,"name":"Delta Force","org":"National High School of Computer Science","rookieYear":2019,"homeRegion":"RO","coords":{"lat":55.8068,"lng":37.5419}},{"number":17844,"name":"RUBIX","org":"COLEGIUL NATIONAL \"INOCHENTIE MICU CLAIN\"","rookieYear":2019,"homeRegion":"RO","coords":{"lat":46.1778,"lng":23.9277}},{"number":17860,"name":"Helix","org":"panait istrati","rookieYear":2019,"homeRegion":"RO","coords":{"lat":45.283,"lng":27.634}},{"number":17861,"name":"CSH","org":"Colegiul National Pedagogic \"Carmen Sylva\" Timisoara","rookieYear":2019,"homeRegion":"RO","coords":{"lat":45.7541,"lng":21.2356}},{"number":17869,"name":"ERcast2020","org":"Liceul Tehnologic Energetic \"Elie Radu\" Ploiesti","rookieYear":2019,"homeRegion":"RO","coords":{"lat":44.9403,"lng":25.9917}},{"number":17870,"name":"Perpetuum Mobile","org":"Colegiul National MIHAI EMINESCU","rookieYear":2019,"homeRegion":"RO","coords":{"lat":47.79,"lng":22.8756}},{"number":17871,"name":"Thobor RO 068","org":"Colegiul National Calistrat Hogas","rookieYear":2019,"homeRegion":"RO","coords":{"lat":45.8465,"lng":27.4275}},{"number":17873,"name":"Vectron Robotics","org":"National College \"Andrei Muresanu\" DEJ","rookieYear":2019,"homeRegion":"RO","coords":{"lat":47.1415,"lng":23.8785}},{"number":17875,"name":"Code Warriors","org":"Liceul Teoretic \u201eRoth-Oberth\u201d","rookieYear":2019,"homeRegion":"RO","coords":{"lat":46.1658,"lng":24.351}},{"number":17881,"name":"RiverWolves","org":"Grigore Moisil Highschool","rookieYear":2019,"homeRegion":"RO","coords":{"lat":45.1604,"lng":28.7945}},{"number":17962,"name":"Ro2D2","org":"National College \u201dMIHAI VITEAZUL\u201d","rookieYear":2019,"homeRegion":"RO","coords":{"lat":44.9366,"lng":26.0255}},{"number":17965,"name":"BOLTS AND GEARS","org":"COLEGIUL NATIONAL LIVIU REBREANU","rookieYear":2019,"homeRegion":"RO","coords":{"lat":47.1364,"lng":24.4946}},{"number":17988,"name":"Mecha Falcons","org":"International School of Prague & International School of Prague","rookieYear":2019,"homeRegion":"","coords":{"lat":50.0864,"lng":14.4157}},{"number":18026,"name":"SGBOTS","org":"LICEUL TEORETIC SOLOMON HALITA","rookieYear":2019,"homeRegion":"RO","coords":{"lat":47.3682,"lng":24.6742}},{"number":18160,"name":"4D-Robotics","org":"Family/Community & Colegiul National \"Alexandru Odobescu\"","rookieYear":2019,"homeRegion":"RO","coords":{"lat":44.8573,"lng":24.8721}},{"number":18338,"name":"StarTech","org":"Colegiul Na\u021bional \"Ioan Slavici\" Satu Mare","rookieYear":2020,"homeRegion":"RO","coords":{"lat":47.797,"lng":22.8751}},{"number":18425,"name":"Ubbo Tech Team","org":"Ubbo Emmius Scholengemeenschap","rookieYear":2020,"homeRegion":"NL","coords":{"lat":53.2128,"lng":6.5661}},{"number":18859,"name":"Stanislas Tech Team","org":"Stanislascollege Westplantsoen","rookieYear":2020,"homeRegion":"NL","coords":{"lat":52.0085,"lng":4.3453}},{"number":18889,"name":"INACTIVE UK 063 - Perton Middle School - Team Snap Wire","org":"Perton Middle School","rookieYear":2020,"homeRegion":"GB","coords":{"lat":52.5852,"lng":-2.1505}},{"number":18916,"name":"Cyber Team Doorn","org":"Revius Lyceum Doorn","rookieYear":2020,"homeRegion":"NL","coords":{"lat":52.0372,"lng":5.3252}},{"number":18917,"name":"thE Agent Group","org":"Ernst-Abbe-Gymnasium","rookieYear":2020,"homeRegion":"DE","coords":{"lat":48.7885,"lng":10.114}},{"number":19043,"name":"CyLiis","org":"Liceul Teoretic de Informatica Grigore Moisil Iasi","rookieYear":2020,"homeRegion":"RO","coords":{"lat":47.1854,"lng":27.5666}},{"number":19044,"name":"Peppers","org":"Liceul Teoretic de Informatica Grigore Moisil Iasi","rookieYear":2020,"homeRegion":"RO","coords":{"lat":47.1854,"lng":27.5666}},{"number":19047,"name":"RavenTech_HD","org":"Liceul Teoretic Traian Lalescu","rookieYear":2020,"homeRegion":"RO","coords":{"lat":45.8647,"lng":22.9013}},{"number":19048,"name":"ROBOPAPIU","org":"Colegiul National \"Alexandru Papiu Ilarian\" Targu-Mures","rookieYear":2020,"homeRegion":"RO","coords":{"lat":46.5405,"lng":24.5744}},{"number":19049,"name":"High Five","org":"\"Ion C. Bratianu\" National College & STEM Kids Association","rookieYear":2020,"homeRegion":"RO","coords":{"lat":44.8573,"lng":24.8721}},{"number":19052,"name":"Trojan.EXE","org":"Liceul Teoretic \"Ana Ipatescu\"","rookieYear":2020,"homeRegion":"RO","coords":{"lat":47.0268,"lng":23.9042}},{"number":19053,"name":"Homosapiens","org":"Colegiul Na\u021bional \u201eBogdan Petriceicu Hasdeu\u201d","rookieYear":2020,"homeRegion":"RO","coords":{"lat":45.1485,"lng":26.8257}},{"number":19054,"name":"NeuroBotix","org":"Colegiul National \"Mihai Viteazul\"","rookieYear":2020,"homeRegion":"RO","coords":{"lat":44.439,"lng":26.1243}},{"number":19055,"name":"TITANS","org":"Colegiul National \"Gheorghe Lazar\"","rookieYear":2020,"homeRegion":"RO","coords":{"lat":44.435,"lng":26.0902}},{"number":19056,"name":"PrimeTech","org":"Liceul de Informatic\u0103 \"Tiberiu Popoviciu\"","rookieYear":2020,"homeRegion":"RO","coords":{"lat":46.7539,"lng":23.5948}},{"number":19058,"name":"Modus Vivendi","org":"Colegiul National \"Mihai Eminescu\" Oradea","rookieYear":2020,"homeRegion":"RO","coords":{"lat":47.0606,"lng":21.9305}},{"number":19059,"name":"ArtRobotix","org":"Liceul de Arte \"Ionel Perlea\" Slobozia","rookieYear":2020,"homeRegion":"RO","coords":{"lat":44.5641,"lng":27.3765}},{"number":19060,"name":"InfinityEdge","org":"Colegiul National Unirea","rookieYear":2020,"homeRegion":"RO","coords":{"lat":45.6979,"lng":27.1914}},{"number":19061,"name":"Boogeybots","org":"COLEGIUL NATIONAL \"ALEXANDRU VLAHUTA\"","rookieYear":2020,"homeRegion":"RO","coords":{"lat":45.3777,"lng":27.0476}},{"number":19062,"name":"Phantom Robotics","org":"Constantin Carabella National College","rookieYear":2020,"homeRegion":"RO","coords":{"lat":44.9295,"lng":25.4521}},{"number":19063,"name":"Under Construction","org":"Constantin Carabella National College","rookieYear":2020,"homeRegion":"RO","coords":{"lat":44.9295,"lng":25.4521}},{"number":19064,"name":"Dragonic Force","org":"Liceul Teoretic Nicolae Balcescu","rookieYear":2020,"homeRegion":"RO","coords":{"lat":44.3869,"lng":28.3712}},{"number":19065,"name":"Inorog Team RO 152","org":"Colegiul National \"Gheorghe Rosca Codreanu\" Barlad","rookieYear":2020,"homeRegion":"RO","coords":{"lat":46.2264,"lng":27.6649}},{"number":19066,"name":"AiCitizens","org":"Colegiul National \"Alexandru Ioan Cuza\"","rookieYear":2020,"homeRegion":"RO","coords":{"lat":45.7029,"lng":27.19}},{"number":19067,"name":"BIONIC ROYALS","org":"Colegiul National Mircea cel Batran","rookieYear":2020,"homeRegion":"RO","coords":{"lat":45.1087,"lng":24.3621}},{"number":19068,"name":"ABSO-TECH","org":"LICEUL TEORETIC PETRU MAIOR","rookieYear":2020,"homeRegion":"RO","coords":{"lat":46.389,"lng":23.847}},{"number":19071,"name":"SmartCluster","org":"Colegiul National \"Gheorghe Vranceanu\" Bacau","rookieYear":2020,"homeRegion":"RO","coords":{"lat":46.571,"lng":26.9104}},{"number":19072,"name":"TehnoZ Junior","org":"Colegiul National \u201dZinca Golescu\u201d Pitesti","rookieYear":2020,"homeRegion":"RO","coords":{"lat":44.8534,"lng":24.8747}},{"number":19073,"name":"The Emperor RO124","org":"Colegiul National \"Traian\"","rookieYear":2020,"homeRegion":"RO","coords":{"lat":44.6237,"lng":22.6601}},{"number":19074,"name":"Extropy","org":"Liceul Teoretic \"Pavel Dan\"","rookieYear":2020,"homeRegion":"RO","coords":{"lat":46.5439,"lng":23.8746}},{"number":19075,"name":"Clockworks","org":"Colegiul National Gheorghe Sincai","rookieYear":2020,"homeRegion":"RO","coords":{"lat":44.4144,"lng":26.1052}},{"number":19076,"name":"RoboticsTrav","org":"Liceul Traian Vuia Craiova","rookieYear":2020,"homeRegion":"RO","coords":{"lat":44.2963,"lng":23.8303}},{"number":19077,"name":"Robocadet","org":"COLEGIUL NATIONAL MILITAR \"TUDOR VLADIMIRESCU\" CRAIOVA","rookieYear":2020,"homeRegion":"RO","coords":{"lat":44.3208,"lng":23.8145}},{"number":19079,"name":"PHOENIX","org":"Avram Iancu High School","rookieYear":2020,"homeRegion":"RO","coords":{"lat":46.7662,"lng":23.5885}},{"number":19081,"name":"Bots' Brain","org":"Liceul Teoretic \"Independen\u021ba\"","rookieYear":2020,"homeRegion":"RO","coords":{"lat":43.9968,"lng":22.9347}},{"number":19082,"name":"RoboAS","org":"Colegiul National \u201eAndrei Saguna\u201d Brasov","rookieYear":2020,"homeRegion":"RO","coords":{"lat":45.6383,"lng":25.584}},{"number":19083,"name":"North East Dynamics","org":"Liceul \"Regina Maria\" Dorohoi","rookieYear":2020,"homeRegion":"RO","coords":{"lat":47.9403,"lng":26.4067}},{"number":19084,"name":"Zenith","org":"''Grigore Moisil' National College","rookieYear":2020,"homeRegion":"RO","coords":{"lat":44.4413,"lng":26.0909}},{"number":19085,"name":"IDeaL Electronics","org":"Colegiul Tehnic Ion D Lazarescu","rookieYear":2020,"homeRegion":"RO","coords":{"lat":45.8406,"lng":23.3643}},{"number":19086,"name":"Robocorns RO004","org":"Colegiul Na\u021bional \"Vasile Lucaciu\" Baia Mare","rookieYear":2020,"homeRegion":"RO","coords":{"lat":47.6579,"lng":23.5691}},{"number":19087,"name":"MironoBot","org":"Miron Costin High School","rookieYear":2020,"homeRegion":"RO","coords":{"lat":47.2559,"lng":26.7216}},{"number":19088,"name":"BROBOTS","org":"COLEGIUL NATIONAL \"ALEXANDRU LAHOVARI\"","rookieYear":2020,"homeRegion":"RO","coords":{"lat":45.1084,"lng":24.3643}},{"number":19090,"name":"TEHROCUZ","org":"LICEUL TEHNOLOGIC \"ALEXANDRU IOAN CUZA\"","rookieYear":2020,"homeRegion":"RO","coords":{"lat":44.5701,"lng":27.3596}},{"number":19091,"name":"The Resistance","org":"Liceul Teoretic \u201eRoth-Oberth\u201d","rookieYear":2020,"homeRegion":"RO","coords":{"lat":46.1658,"lng":24.351}},{"number":19092,"name":"ICLASS ","org":"Liceul Tehnologic ,,Costache Conachi\" ","rookieYear":2020,"homeRegion":"RO","coords":{"lat":45.8469,"lng":27.4267}},{"number":19093,"name":"Infinity Bolts ","org":"Liceul National de Informatica Arad","rookieYear":2020,"homeRegion":"RO","coords":{"lat":46.1824,"lng":21.3293}},{"number":19094,"name":"WizzTech","org":"Liceul Teoretic Grigore Moisil Timisoara","rookieYear":2020,"homeRegion":"RO","coords":{"lat":45.7416,"lng":21.227}},{"number":19095,"name":"WireKnights","org":"Colegiul National Vasile Goldis Arad","rookieYear":2020,"homeRegion":"RO","coords":{"lat":46.1846,"lng":21.309}},{"number":19096,"name":"DanubeRobotics","org":"Colegiul National \"Barbu Stirbei\"","rookieYear":2020,"homeRegion":"RO","coords":{"lat":44.2324,"lng":27.1898}},{"number":19097,"name":"Quasar.Robotics","org":"COLEGIUL NATIONAL 'CUZA VODA\" HUSI","rookieYear":2020,"homeRegion":"RO","coords":{"lat":46.6749,"lng":28.0573}},{"number":19098,"name":"Eastern Foxes","org":"Colegiu National \" Ion Luca Caragiale\"","rookieYear":2020,"homeRegion":"RO","coords":{"lat":44.945,"lng":26.0265}},{"number":19099,"name":"H-tech","org":"Colegiul National Ion Creanga Bucuresti","rookieYear":2020,"homeRegion":"RO","coords":{"lat":44.4236,"lng":26.1064}},{"number":19100,"name":"Future Tech","org":"Liceul Teoretic \u201eIon Luca\u201d & Clubul Copiilor Vatra Dornei","rookieYear":2020,"homeRegion":"RO","coords":{"lat":47.3478,"lng":25.3567}},{"number":19101,"name":"Tech-X","org":"Colegiul National \u201dDragos Voda\u201d","rookieYear":2020,"homeRegion":"RO","coords":{"lat":47.9308,"lng":23.887}},{"number":19102,"name":"TheArchitechs","org":"Colegiul Na\u021bional \"Emil Racovi\u021b\u0103\" Cluj-Napoca","rookieYear":2020,"homeRegion":"RO","coords":{"lat":46.7682,"lng":23.594}},{"number":19103,"name":"Kronbot","org":"Colegiul Na\u021bional de Informatic\u0103 \u201eGrigore Moisil\u201d Bra\u0219ov","rookieYear":2020,"homeRegion":"RO","coords":{"lat":45.6441,"lng":25.6244}},{"number":19104,"name":"CyberPunk Robotics","org":"Colegiul National \"Mihai Viteazul\" Turda","rookieYear":2020,"homeRegion":"RO","coords":{"lat":46.575,"lng":23.7777}},{"number":19105,"name":"DecebalTech","org":"Colegiul Na\u021bional \u201eDecebal\u201d","rookieYear":2020,"homeRegion":"RO","coords":{"lat":45.8836,"lng":22.902}},{"number":19106,"name":"Dark Energy","org":"Colegiul Na\u021bional \u201eDecebal\u201d","rookieYear":2020,"homeRegion":"RO","coords":{"lat":45.8836,"lng":22.902}},{"number":19108,"name":"Alphatronic","org":"Transylvania College","rookieYear":2020,"homeRegion":"RO","coords":{"lat":46.7641,"lng":23.6248}},{"number":19109,"name":"RaSky","org":"National College Elena Cuza","rookieYear":2020,"homeRegion":"RO","coords":{"lat":44.3191,"lng":23.7992}},{"number":19110,"name":"R0B0SMART","org":"Colegiul National Ion Minulescu Slatina","rookieYear":2020,"homeRegion":"RO","coords":{"lat":44.4248,"lng":24.3628}},{"number":19111,"name":"TITUR0B0","org":"Liceul Teoretic Nicolae Titulescu Slatina","rookieYear":2020,"homeRegion":"RO","coords":{"lat":44.4289,"lng":24.3713}},{"number":19112,"name":"UNDEFINED","org":"Colegiul National Nicolae Grigorescu ","rookieYear":2020,"homeRegion":"RO","coords":{"lat":45.1262,"lng":25.7344}},{"number":19115,"name":"B-Robo","org":"Liceul Tehnologic Ion I.C. Bratianu","rookieYear":2020,"homeRegion":"RO","coords":{"lat":47.7926,"lng":22.8786}},{"number":19116,"name":"VV Robots","org":"Colegiul Na\u021bional Vlaicu Vod\u0103","rookieYear":2020,"homeRegion":"RO","coords":{"lat":45.1335,"lng":24.6768}},{"number":19117,"name":"Robo-Sapiens","org":"Colegiul National \"Spiru Haret\" Bucuresti","rookieYear":2020,"homeRegion":"RO","coords":{"lat":44.4381,"lng":26.1071}},{"number":19119,"name":"InfotronX","org":"Colegiul Tehnic \"INFOEL\"","rookieYear":2020,"homeRegion":"RO","coords":{"lat":47.1434,"lng":24.5101}},{"number":19120,"name":"AlphaBit","org":"Colegiul National Mihai Eminescu Petrosani","rookieYear":2020,"homeRegion":"RO","coords":{"lat":45.4201,"lng":23.3729}},{"number":19121,"name":"Tea Borgs","org":"Colegiul Na\u021bional Tudor Vladimirescu","rookieYear":2020,"homeRegion":"RO","coords":{"lat":45.0374,"lng":23.2738}},{"number":19128,"name":"RoboDac Dacia","org":"Dacia Pitesti Technological High School","rookieYear":2020,"homeRegion":"RO","coords":{"lat":44.8573,"lng":24.8721}},{"number":19131,"name":"Evolution","org":"Colegiul National Mihai Viteazul","rookieYear":2020,"homeRegion":"RO","coords":{"lat":44.564,"lng":27.3541}},{"number":19134,"name":"Leaf Robotics","org":"Liceul Teoretic Panait Cerna","rookieYear":2020,"homeRegion":"RO","coords":{"lat":45.2705,"lng":27.9555}},{"number":19139,"name":"SnakeTech","org":"Colegiul National \"Petru Rares\"","rookieYear":2020,"homeRegion":"RO","coords":{"lat":46.933,"lng":26.371}},{"number":19141,"name":"BraveBots","org":"Colegiul National \"Mihai Viteazul\"","rookieYear":2020,"homeRegion":"RO","coords":{"lat":44.9366,"lng":26.0255}},{"number":19143,"name":"HEX","org":"Panait Istrati","rookieYear":2020,"homeRegion":"RO","coords":{"lat":45.283,"lng":27.634}},{"number":19147,"name":"Blizzard Eye","org":"Colegiul National \"Stefan cel Mare\"","rookieYear":2020,"homeRegion":"RO","coords":{"lat":46.9847,"lng":26.5178}},{"number":19148,"name":"StefTech","org":"Colegiul National Militar \u201e\u0218tefan cel Mare\u201d","rookieYear":2020,"homeRegion":"RO","coords":{"lat":47.5081,"lng":25.6109}},{"number":19151,"name":"TECHNO-MAISTER","org":"Liceul Teoretic \"Iulia Zamfirescu\"","rookieYear":2020,"homeRegion":"RO","coords":{"lat":44.9616,"lng":24.9481}},{"number":19152,"name":"Brainstorms","org":"Colegiul Tehnic \"Alesandru Papiu Ilarian\"","rookieYear":2020,"homeRegion":"RO","coords":{"lat":47.1881,"lng":23.0571}},{"number":19176,"name":"Brobo\u021bi","org":"Colegiul National Ion C. Bratianu","rookieYear":2020,"homeRegion":"RO","coords":{"lat":44.8575,"lng":24.868}},{"number":19211,"name":"Virtual Wolves","org":"Liceul Teoretic \" Mihai Eminescu \" Barlad","rookieYear":2020,"homeRegion":"RO","coords":{"lat":46.2101,"lng":27.6481}},{"number":19212,"name":"natie #1","org":"Home School","rookieYear":2020,"homeRegion":"RO","coords":{"lat":44.4787,"lng":26.1037}},{"number":19234,"name":"ByteForce","org":"Colegiul National \"Vasile Alecsandri\"","rookieYear":2020,"homeRegion":"RO","coords":{"lat":45.4406,"lng":28.0521}},{"number":19235,"name":"NATIE 2024- test","org":".,.,.,.","rookieYear":2020,"homeRegion":"RO","coords":{"lat":44.473,"lng":26.0657}},{"number":19242,"name":"RoboPeda","org":"Liceul Voca\u021bional Pedagogic Nicolae Bolca\u0219","rookieYear":2020,"homeRegion":"RO","coords":{"lat":46.6706,"lng":22.3463}},{"number":19246,"name":"Cybersouls","org":"Colegiul Na\u021bional \u201dGeorge Co\u0219buc\u201d N\u0103s\u0103ud","rookieYear":2020,"homeRegion":"RO","coords":{"lat":47.2844,"lng":24.4039}},{"number":19256,"name":"CyberMoon","org":"Colegiul National Constantin Diaconovici Loga Timisoara","rookieYear":2020,"homeRegion":"RO","coords":{"lat":45.753,"lng":21.2343}},{"number":19257,"name":"Unplugged","org":"Liceul Teoretic Nikolaus Lenau","rookieYear":2020,"homeRegion":"RO","coords":{"lat":45.7579,"lng":21.2271}},{"number":19259,"name":"Gear Subzero","org":"FIRST UK & Brighton College","rookieYear":2020,"homeRegion":"GB","coords":{"lat":50.8218,"lng":-0.1211}},{"number":19265,"name":"Tenby Techno Team","org":"Ysgol Greenhill","rookieYear":2020,"homeRegion":"GB","coords":{"lat":51.6726,"lng":-4.705}},{"number":19267,"name":"INACTIVE UK OOO - Organisation - Team Name","org":"Strathmore College","rookieYear":2020,"homeRegion":"GB","coords":{"lat":53.0162,"lng":-2.1813}},{"number":19270,"name":"INACTIVE?Calderstones","org":"Calderstones School","rookieYear":2020,"homeRegion":"GB","coords":{"lat":53.3827,"lng":-2.9016}},{"number":19279,"name":"Pegasus","org":"American School in London","rookieYear":2020,"homeRegion":"GB","coords":{"lat":51.5348,"lng":-0.1766}},{"number":19280,"name":"Phoenix","org":"Family/Community","rookieYear":2020,"homeRegion":"GB","coords":{"lat":51.6242,"lng":-0.3408}},{"number":19281,"name":"Froot Loopz","org":"American School in London","rookieYear":2020,"homeRegion":"GB","coords":{"lat":51.5348,"lng":-0.1766}},{"number":19282,"name":"Orion","org":"American School in London","rookieYear":2020,"homeRegion":"GB","coords":{"lat":51.5348,"lng":-0.1766}},{"number":19283,"name":"INACTIVE American School in London","org":"American School in London","rookieYear":2020,"homeRegion":"GB","coords":{"lat":51.5348,"lng":-0.1766}},{"number":19284,"name":"Mobius","org":"American School in London","rookieYear":2020,"homeRegion":"GB","coords":{"lat":51.5348,"lng":-0.1766}},{"number":19292,"name":"TeamPhoenix","org":"Colegiul Tehnic ION MINCU","rookieYear":2020,"homeRegion":"RO","coords":{"lat":45.052,"lng":23.28}},{"number":19342,"name":"Clever Core","org":"Colegiul National \"Gheorghe Sincai\"","rookieYear":2020,"homeRegion":"RO","coords":{"lat":47.6573,"lng":23.5772}},{"number":19357,"name":"Hell Robotics","org":"Family/Community","rookieYear":2021,"homeRegion":"","coords":{"lat":63.4627,"lng":11.1345}},{"number":19393,"name":"Dummy team FTC Netherlands","org":"FTC Netherlands","rookieYear":2021,"homeRegion":"NL","coords":{"lat":51.4393,"lng":5.4786}},{"number":19444,"name":"Lorentz Engineering","org":"Lorentz Casimir Lyceum","rookieYear":2021,"homeRegion":"NL","coords":{"lat":51.4479,"lng":5.5085}},{"number":20043,"name":"SNGine","org":"Colegiul Scoala Nationala de Gaz","rookieYear":2021,"homeRegion":"RO","coords":{"lat":46.1574,"lng":24.3545}},{"number":20091,"name":"Blood Sweat and Gears","org":"Maerlant Lyceum","rookieYear":2021,"homeRegion":"NL","coords":{"lat":52.092,"lng":4.3215}},{"number":20092,"name":"RTF-RoboticTechFrox","org":"K\u00f6nigin-Katharina-Stift","rookieYear":2021,"homeRegion":"NL","coords":{"lat":48.7815,"lng":9.1838}},{"number":20131,"name":"The Inventors","org":"The Inventors Academy of Robotics & Innovation","rookieYear":2021,"homeRegion":"GR","coords":{"lat":37.8071,"lng":23.7994}},{"number":20135,"name":"Meeral Robotics","org":"Colegiul National \"Constantin Diaconovici Loga\"","rookieYear":2021,"homeRegion":"RO","coords":{"lat":45.753,"lng":21.2343}},{"number":20157,"name":"Perseverance","org":"Koenigin-Olga-Stift Gymnasium","rookieYear":2021,"homeRegion":"DE","coords":{"lat":48.7752,"lng":9.1635}},{"number":20237,"name":"LTCDMNrobotics","org":"Liceul Tehnologic ,,Clisura Dun\u0103rii\u201d Moldova Nou\u0103","rookieYear":2021,"homeRegion":"RO","coords":{"lat":44.7274,"lng":21.6186}},{"number":20265,"name":"Heart of RoBots","org":"C.N.B.P. Hasdeu","rookieYear":2021,"homeRegion":"RO","coords":{"lat":45.1494,"lng":26.8244}},{"number":20329,"name":"TechnoGods","org":"Colegiul Na\u021bional \"Ecaterina Teodoroiu \" & Colegiul Na\u021bional \"Spiru Haret\"","rookieYear":2021,"homeRegion":"RO","coords":{"lat":45.0282,"lng":23.2706}},{"number":20361,"name":"RoboRev","org":"Revius Lyceum Doorn","rookieYear":2021,"homeRegion":"NL","coords":{"lat":52.0372,"lng":5.3252}},{"number":20691,"name":"Andromeda","org":"INTERNATIONAL SCHOOL OF BUCHAREST","rookieYear":2021,"homeRegion":"RO","coords":{"lat":44.4309,"lng":26.2149}},{"number":20732,"name":"ATLAS_CNB_192","org":"COLEGIUL NATIONAL BANATEAN ","rookieYear":2021,"homeRegion":"RO","coords":{"lat":45.7447,"lng":21.2127}},{"number":20738,"name":"secbirdmachine 2","org":"d'Oultremontcollege","rookieYear":2021,"homeRegion":"NL","coords":{"lat":51.6425,"lng":5.131}},{"number":20792,"name":"Cybears","org":"International School of Amsterdam","rookieYear":2021,"homeRegion":"NL","coords":{"lat":52.2895,"lng":4.8607}},{"number":20880,"name":"RoboGraphed","org":"Colegiul Na\u021bional Militar \"Alexandru Ioan Cuza\" Constanta","rookieYear":2021,"homeRegion":"RO","coords":{"lat":44.1459,"lng":28.6312}},{"number":20912,"name":"Harambe Cartel","org":"Colegiul National \"Moise Nicoara\" ","rookieYear":2021,"homeRegion":"RO","coords":{"lat":46.1708,"lng":21.3195}},{"number":20925,"name":"HYPERCUBE","org":"Laude-Reut Educational Complex","rookieYear":2021,"homeRegion":"RO","coords":{"lat":44.4105,"lng":26.2045}},{"number":20936,"name":"Royal Engineers","org":"Colegiul National \"Stefan cel Mare\" Suceava","rookieYear":2021,"homeRegion":"RO","coords":{"lat":47.6466,"lng":26.257}},{"number":20937,"name":"UK 095 Earth Wind & Wire","org":"Created Academy School","rookieYear":2021,"homeRegion":"GB","coords":{"lat":53.0162,"lng":-2.1813}},{"number":20954,"name":"STIM DC","org":"Colegiul National \"Dimitrie Cantemir\"","rookieYear":2021,"homeRegion":"RO","coords":{"lat":46.2533,"lng":26.7768}},{"number":20955,"name":"UK-051 - Belfast High School - The Resistance","org":"Belfast High School","rookieYear":2021,"homeRegion":"GB","coords":{"lat":54.6884,"lng":-5.8757}},{"number":20957,"name":"Motion Bot","org":"Liceul Tehnologic \"Alexandru Ioan Cuza\" Barlad","rookieYear":2021,"homeRegion":"RO","coords":{"lat":46.2237,"lng":27.6824}},{"number":20960,"name":"NATIE #test","org":"Family/Community","rookieYear":2021,"homeRegion":"RO","coords":{"lat":44.3655,"lng":26.1169}},{"number":20963,"name":"ROBOKEY","org":"Colegiul National de Informatica \u201dCarmen Sylva\u201d Petrosani","rookieYear":2021,"homeRegion":"RO","coords":{"lat":45.4253,"lng":23.3684}},{"number":20965,"name":"BIT-MO","org":"Colegiul Na\u021bional \u201ePreparandia-Dimitrie \u021aichindeal\u201d Arad","rookieYear":2021,"homeRegion":"RO","coords":{"lat":46.1727,"lng":21.3146}},{"number":20972,"name":"VOLTA CIRCUITS","org":"National College Petru Rares","rookieYear":2021,"homeRegion":"RO","coords":{"lat":47.6546,"lng":26.4258}},{"number":20974,"name":"Hardwired","org":"Colegiul Na\u021bional \u201dUNIREA\u201d T\u00e2rgu Mure\u0219","rookieYear":2021,"homeRegion":"RO","coords":{"lat":46.5476,"lng":24.5706}},{"number":20981,"name":"Quantum Mechanix","org":"St John Fisher Catholic College","rookieYear":2021,"homeRegion":"GB","coords":{"lat":53.0161,"lng":-2.2358}},{"number":20982,"name":"Octacore","org":"St John Fisher Catholic College ","rookieYear":2021,"homeRegion":"GB","coords":{"lat":53.0161,"lng":-2.2358}},{"number":20985,"name":"Wafy ","org":"Contantin Brancusi Technical College  & Contantin Brancusi Technical College","rookieYear":2021,"homeRegion":"RO","coords":{"lat":45.4437,"lng":23.3765}},{"number":20989,"name":"BaguetTechs","org":"Centre International de Valbonne","rookieYear":2021,"homeRegion":"FR","coords":{"lat":43.6273,"lng":7.0337}},{"number":20990,"name":"TheFrenchineers","org":"Centre International de Valbonne","rookieYear":2021,"homeRegion":"FR","coords":{"lat":43.6273,"lng":7.0337}},{"number":20991,"name":"FRITES","org":"Centre International de Valbonne","rookieYear":2021,"homeRegion":"FR","coords":{"lat":43.6273,"lng":7.0337}},{"number":20992,"name":"Berkeley Robotics","org":"Raytheon UK & SGS Berkeley Green UTC","rookieYear":2021,"homeRegion":"GB","coords":{"lat":51.6915,"lng":-2.4978}},{"number":20993,"name":"GroundX","org":"Outwood Academy Newbold","rookieYear":2021,"homeRegion":"GB","coords":{"lat":53.2525,"lng":-1.4387}},{"number":20994,"name":"fernDOWNLOAD#85","org":"Ferndown Upper School","rookieYear":2021,"homeRegion":"GB","coords":{"lat":50.8062,"lng":-1.9033}},{"number":20995,"name":"Vision Robotics","org":"Egglescliffe School","rookieYear":2021,"homeRegion":"GB","coords":{"lat":54.5167,"lng":-1.3608}},{"number":20996,"name":"Adwick Intelligence ","org":"Outwood Academy Adwick","rookieYear":2021,"homeRegion":"GB","coords":{"lat":53.5681,"lng":-1.1916}},{"number":20997,"name":"fernDOWNLOAD#166","org":"Ferndown Upper School","rookieYear":2021,"homeRegion":"GB","coords":{"lat":50.8062,"lng":-1.9033}},{"number":20998,"name":"fernDOWNLOAD#239","org":"Ferndown Upper School","rookieYear":2021,"homeRegion":"GB","coords":{"lat":50.8062,"lng":-1.9033}},{"number":20999,"name":"fernDOWNLOAD#240","org":"Ferndown Upper School","rookieYear":2021,"homeRegion":"GB","coords":{"lat":50.8062,"lng":-1.9033}},{"number":21000,"name":"@FSL_ROBOTICS_2022","org":"Friends' School Lisburn","rookieYear":2021,"homeRegion":"GB","coords":{"lat":54.5181,"lng":-6.0449}},{"number":21002,"name":"The Chan Clan","org":"The American School in London","rookieYear":2021,"homeRegion":"GB","coords":{"lat":51.5348,"lng":-0.1766}},{"number":21007,"name":"INACTIVE Wallace High School","org":"The Wallace High School","rookieYear":2021,"homeRegion":"GB","coords":{"lat":54.5186,"lng":-6.0512}},{"number":21011,"name":"UK 126 - AUEA - Bostin Dynamics","org":"Aston University Engineering Academy & Aston University Engineering Academy","rookieYear":2021,"homeRegion":"GB","coords":{"lat":52.4891,"lng":-1.8863}},{"number":21013,"name":"INACTIVE UK 010 - Woodhouse Academy - The Gampoko Squad","org":"Woodhouse Academy","rookieYear":2021,"homeRegion":"GB","coords":{"lat":53.0162,"lng":-2.1813}},{"number":21014,"name":"INACTIVE UK 009 - Woodhouse Academy - Wire Wolves","org":"Woodhouse Academy","rookieYear":2021,"homeRegion":"GB","coords":{"lat":53.0162,"lng":-2.1813}},{"number":21015,"name":"UK 081 - Pimlico Academy - Pimlico Panthers","org":"Pimlico Academy","rookieYear":2021,"homeRegion":"GB","coords":{"lat":51.4878,"lng":-0.1368}},{"number":21022,"name":"UK372-UWC Atlantic-Atlantic Robotics","org":"UWC Atlantic","rookieYear":2021,"homeRegion":"GB","coords":{"lat":51.4096,"lng":-3.4814}},{"number":21024,"name":"Calderdrones","org":"Calderstones School","rookieYear":2021,"homeRegion":"GB","coords":{"lat":53.3827,"lng":-2.9016}},{"number":21028,"name":"The Eagles RO143","org":"Colegiul Na\u021bional \u201eRoman Vod\u0103\u201d","rookieYear":2021,"homeRegion":"RO","coords":{"lat":46.9253,"lng":26.9309}},{"number":21030,"name":"MasterBots","org":"Colegiul Na\u021bional de Informatic\u0103 \u201dMatei Basarab\u201d","rookieYear":2021,"homeRegion":"RO","coords":{"lat":45.1159,"lng":24.3679}},{"number":21031,"name":"roLERbot","org":"Liceul Teoretic \"Emil Racovita\" Vaslui","rookieYear":2021,"homeRegion":"RO","coords":{"lat":46.6418,"lng":27.7379}},{"number":21033,"name":"HYPE","org":"Liceul Teoretic \u201cNicolae Balcescu\u201d","rookieYear":2021,"homeRegion":"RO","coords":{"lat":46.7749,"lng":23.5962}},{"number":21034,"name":"TEAM ORIGINALS","org":"Family/Community","rookieYear":2021,"homeRegion":"RO","coords":{"lat":45.7616,"lng":21.251}},{"number":21044,"name":"Epsilon","org":"Colegiul Dobrogean \"Spiru Haret\" ","rookieYear":2021,"homeRegion":"RO","coords":{"lat":45.1808,"lng":28.8065}},{"number":21047,"name":"Natie #4","org":"NATIE PRIN EDUCATIE ASOC.","rookieYear":2021,"homeRegion":"RO","coords":{"lat":45.1775,"lng":28.8016}},{"number":21050,"name":"MasterMinds","org":"Cantemir Voda National College","rookieYear":2021,"homeRegion":"RO","coords":{"lat":44.4456,"lng":26.1132}},{"number":21051,"name":"KP Computer Training BITS","org":"KP Computer Training ","rookieYear":2021,"homeRegion":"CY","coords":{"lat":34.9772,"lng":33.8492}},{"number":21055,"name":"Pascal Lefkosia Eagles","org":"PASCAL English School Lefkosia","rookieYear":2021,"homeRegion":"CY","coords":{"lat":35.1374,"lng":33.2765}},{"number":21056,"name":"Army Bot","org":"Colegiul National Militar \"Mihai Viteazul\"","rookieYear":2021,"homeRegion":"RO","coords":{"lat":46.0676,"lng":23.57}},{"number":21070,"name":"BYTEFORCE","org":"Colegiul Na\u021bional Vasile Alecsandri","rookieYear":2021,"homeRegion":"RO","coords":{"lat":45.4406,"lng":28.0521}},{"number":21071,"name":"SkyLine","org":"Colegiul Na\u021bional \u201eIen\u0103chi\u021b\u0103 V\u0103c\u0103rescu\u201d","rookieYear":2021,"homeRegion":"RO","coords":{"lat":44.9265,"lng":25.4519}},{"number":21073,"name":"November Eleven","org":"Liceul Tehnologic \u201dSfanta Ecaterina\u201d","rookieYear":2021,"homeRegion":"RO","coords":{"lat":44.7153,"lng":26.6407}},{"number":21087,"name":"Velocity","org":"Colegiul National Gheorghe Munteanu Murgoci","rookieYear":2021,"homeRegion":"RO","coords":{"lat":45.2642,"lng":27.9702}},{"number":21088,"name":"Momentum","org":"Colegiul Na\u021bional \"Gheorghe Munteanu Murgoci\"","rookieYear":2021,"homeRegion":"RO","coords":{"lat":45.2642,"lng":27.9702}},{"number":21089,"name":"FastForwardFutureTeam","org":"Colegiul National \"Avram Iancu\" Stei","rookieYear":2021,"homeRegion":"RO","coords":{"lat":46.5384,"lng":22.4636}},{"number":21097,"name":"Dragonfly","org":"Colegiul National \"Grigore Ghica\"","rookieYear":2021,"homeRegion":"RO","coords":{"lat":47.9534,"lng":26.3942}},{"number":21100,"name":"The G C School Voyagers","org":"The G C School of Careers","rookieYear":2021,"homeRegion":"CY","coords":{"lat":35.1566,"lng":33.3664}},{"number":21105,"name":"The Grammar School RoboMinds","org":"The Grammar School","rookieYear":2021,"homeRegion":"CY","coords":{"lat":35.0421,"lng":32.9274}},{"number":21109,"name":"TESEK Makarios III RoboMak","org":"TESEK Makarios G","rookieYear":2021,"homeRegion":"CY","coords":{"lat":35.1459,"lng":33.3142}},{"number":21116,"name":"MCB Robotics","org":"Methodist College Belfast","rookieYear":2021,"homeRegion":"GB","coords":{"lat":54.5835,"lng":-5.94}},{"number":21126,"name":"21126","org":"Holmfirth High School","rookieYear":2021,"homeRegion":"GB","coords":{"lat":53.6485,"lng":-1.7848}},{"number":21135,"name":"Newbotics","org":"Newcastle Academy","rookieYear":2021,"homeRegion":"GB","coords":{"lat":53.0271,"lng":-2.2239}},{"number":21169,"name":"CyberLions","org":"Liceul Teoretic \u201cBr\u00e2ncoveanu Vod\u0103\u201d","rookieYear":2021,"homeRegion":"RO","coords":{"lat":44.9867,"lng":26.2342}},{"number":21170,"name":"UK 232 - Sevenoaks School - 7Oaks ","org":"Sevenoaks School","rookieYear":2021,"homeRegion":"GB","coords":{"lat":51.2643,"lng":0.1972}},{"number":21186,"name":"110 Delphinus 21186","org":"Nonsuch High School for Girls ","rookieYear":2021,"homeRegion":"GB","coords":{"lat":51.3543,"lng":-0.2248}},{"number":21187,"name":"426 Equuleus 21187","org":"Nonsuch High School for Girls ","rookieYear":2021,"homeRegion":"GB","coords":{"lat":51.3543,"lng":-0.2248}},{"number":21194,"name":"RBAI","org":"Home School","rookieYear":2021,"homeRegion":"GB","coords":{"lat":54.5964,"lng":-5.9302}},{"number":21196,"name":"UK 378 - The Norwood School - Norwood Industries","org":"Home School","rookieYear":2021,"homeRegion":"GB","coords":{"lat":51.363,"lng":-0.2032}},{"number":21199,"name":"UK116 - St Philomena's - Omega","org":"St Philomena's Catholic High School for Girls","rookieYear":2021,"homeRegion":"GB","coords":{"lat":51.3648,"lng":-0.1691}},{"number":21200,"name":"UK179 - Alpha","org":"St Philomena's Catholic High School for Girls","rookieYear":2021,"homeRegion":"GB","coords":{"lat":51.3648,"lng":-0.1691}},{"number":21203,"name":"108 Oldfields","org":"Oldfields Hall Middle School","rookieYear":2021,"homeRegion":"GB","coords":{"lat":52.8979,"lng":-1.8763}},{"number":21204,"name":"177 Oldfields","org":"oldfields hall middle school","rookieYear":2021,"homeRegion":"GB","coords":{"lat":52.8979,"lng":-1.8763}},{"number":21206,"name":"Speedster","org":"Trumpington Community College","rookieYear":2021,"homeRegion":"GB","coords":{"lat":52.1761,"lng":0.1237}},{"number":21207,"name":"Cipher","org":"Trumpington Community College","rookieYear":2021,"homeRegion":"GB","coords":{"lat":52.1761,"lng":0.1237}},{"number":21218,"name":"SintLucas","org":"SintLucas","rookieYear":2021,"homeRegion":"NL","coords":{"lat":51.4393,"lng":5.4786}},{"number":21221,"name":"INACTIVE - UK 279 - Brighton College - Gear Sub Zero","org":"Brighton College","rookieYear":2021,"homeRegion":"GB","coords":{"lat":50.8218,"lng":-0.1211}},{"number":21403,"name":"ERH-Paris","org":"Coll\u00e8ge Lyc\u00e9e Hautefeuille","rookieYear":2022,"homeRegion":"FR","coords":{"lat":48.9107,"lng":2.2691}},{"number":21420,"name":"Robot Lamar'Team","org":"Institution Lamartine","rookieYear":2022,"homeRegion":"FR","coords":{"lat":46.1084,"lng":5.8256}},{"number":21425,"name":"Galil\u00e9oBots","org":"Lyc\u00e9e Galil\u00e9e","rookieYear":2022,"homeRegion":"FR","coords":{"lat":45.5042,"lng":4.8548}},{"number":21434,"name":"Bel Air Robot","org":"NOTRE DAME DE BEL AIR","rookieYear":2022,"homeRegion":"FR","coords":{"lat":45.8904,"lng":4.438}},{"number":21455,"name":"RoSophia","org":"Centrul Jude\u021bean de Excelen\u021b\u0103 Gala\u021bi","rookieYear":2022,"homeRegion":"RO","coords":{"lat":45.4573,"lng":28.0472}},{"number":21476,"name":"ViCyber","org":"Colegiul National de Informatica \"Tudor Vianu\"","rookieYear":2022,"homeRegion":"RO","coords":{"lat":44.4579,"lng":26.0798}},{"number":21591,"name":"IBot","org":"Associazione Art\u00f9 APS & Associazione Art\u00f9 APS","rookieYear":2022,"homeRegion":"IT","coords":{"lat":46.0201,"lng":11.8973}},{"number":21651,"name":"Thunder Kites","org":"Benjamin Franklin International School","rookieYear":2022,"homeRegion":"NL","coords":{"lat":41.4062,"lng":2.1188}},{"number":21658,"name":"Kiwi","org":"Emmauscollege","rookieYear":2022,"homeRegion":"NL","coords":{"lat":51.9244,"lng":4.4778}},{"number":21905,"name":"BCS Vikings ","org":"Akademiet Realfagsgymnas Sandvika AS","rookieYear":2022,"homeRegion":"","coords":{"lat":59.8852,"lng":10.4911}},{"number":21972,"name":"LTASrob","org":"LICEUL TEORETIC AXENTE SEVER","rookieYear":2022,"homeRegion":"RO","coords":{"lat":46.1592,"lng":24.3543}},{"number":21973,"name":"Natie #5","org":"NATIE PRIN EDUCATIE ASOC.","rookieYear":2022,"homeRegion":"RO","coords":{"lat":44.4397,"lng":26.0694}},{"number":21976,"name":"Renaissance Robotics","org":"Spiru Haret National College ","rookieYear":2022,"homeRegion":"RO","coords":{"lat":44.4296,"lng":26.0918}},{"number":21983,"name":"The RoboRats","org":"Penta Jacob van Liesveldt","rookieYear":2022,"homeRegion":"NL","coords":{"lat":51.8411,"lng":4.1476}},{"number":21996,"name":"AtomicBots","org":"Colegiul Na\u021bional Andrei Mure\u0219anu Bistri\u021ba","rookieYear":2022,"homeRegion":"RO","coords":{"lat":47.141,"lng":24.5013}},{"number":22017,"name":"Eu codez","org":"Asociatia Eu codez","rookieYear":2022,"homeRegion":"RO","coords":{"lat":46.9292,"lng":26.3587}},{"number":22020,"name":"Gymnasium Haganum","org":"Gymnasium Haganum","rookieYear":2022,"homeRegion":"NL","coords":{"lat":52.0839,"lng":4.2912}},{"number":22042,"name":"Lituanica X","org":"Family/Community","rookieYear":2022,"homeRegion":"LT","coords":{"lat":54.6878,"lng":25.2781}},{"number":22043,"name":"VIOHALCO TECHNOLOGIES FTC","org":"VIOHALCO TECHNOLOGIES & MellonLab.org","rookieYear":2022,"homeRegion":"GR","coords":{"lat":37.9432,"lng":23.6471}},{"number":22044,"name":"Aces ","org":"Liceul Teoretic \"Lucian Blaga\"","rookieYear":2022,"homeRegion":"RO","coords":{"lat":46.7658,"lng":23.6247}},{"number":22052,"name":"Firda Force One","org":"Firda","rookieYear":2022,"homeRegion":"NL","coords":{"lat":53.1967,"lng":5.7984}},{"number":22084,"name":"Star Force","org":"Family/Community","rookieYear":2022,"homeRegion":"RO","coords":{"lat":44.3655,"lng":26.1169}},{"number":22103,"name":"RNS","org":"Family/Community","rookieYear":2022,"homeRegion":"RO","coords":{"lat":44.3655,"lng":26.1169}},{"number":22107,"name":"Tectura 1","org":"Tectura Gent-Centrum","rookieYear":2022,"homeRegion":"NL","coords":{"lat":51.0522,"lng":3.7112}},{"number":22114,"name":"TeoretiKa","org":"Liceul Teoretic Negresti - Oas","rookieYear":2022,"homeRegion":"RO","coords":{"lat":47.8743,"lng":23.4264}},{"number":22173,"name":"Red Monkeys","org":"Buurtcollege Maas en Peel","rookieYear":2022,"homeRegion":"NL","coords":{"lat":51.3288,"lng":5.9819}},{"number":22184,"name":"White Feather","org":"Family/Community","rookieYear":2022,"homeRegion":"RO","coords":{"lat":44.3655,"lng":26.1169}},{"number":22222,"name":"Lumio School Robobober","org":"Lumio","rookieYear":2022,"homeRegion":"CY","coords":{"lat":34.7386,"lng":32.4861}},{"number":22223,"name":"Curio one","org":"Curio","rookieYear":2022,"homeRegion":"NL","coords":{"lat":51.5902,"lng":4.7896}},{"number":22224,"name":"Buzz Lightyear","org":"t Hooghelandt","rookieYear":2022,"homeRegion":"NL","coords":{"lat":52.1539,"lng":5.3741}},{"number":22225,"name":"Marabouteur","org":"lyc\u00e9e audiberti","rookieYear":2022,"homeRegion":"FR","coords":{"lat":43.5739,"lng":7.1167}},{"number":22226,"name":"Renaissance Robotics","org":"Family/Community","rookieYear":2022,"homeRegion":"RO","coords":{"lat":44.3655,"lng":26.1169}},{"number":22390,"name":"Black Feather","org":"Family/Community","rookieYear":2022,"homeRegion":"RO","coords":{"lat":45.5879,"lng":25.6372}},{"number":22456,"name":"UK 447 - BSG - Scarlet Sparx","org":"Bournemouth School for Girls","rookieYear":2022,"homeRegion":"GB","coords":{"lat":50.7508,"lng":-1.8522}},{"number":22457,"name":"UK 456 - BSG - ULTRAVIOLET","org":"Bournemouth School for Girls","rookieYear":2022,"homeRegion":"GB","coords":{"lat":50.7508,"lng":-1.8522}},{"number":22486,"name":"Something's Gone Wrong","org":"Denstone College","rookieYear":2022,"homeRegion":"GB","coords":{"lat":52.9597,"lng":-1.8674}},{"number":22487,"name":"Cubotics","org":"Oxford High School","rookieYear":2022,"homeRegion":"GB","coords":{"lat":51.7736,"lng":-1.2591}},{"number":22507,"name":"TISM Titans","org":"TISM","rookieYear":2022,"homeRegion":"NL","coords":{"lat":51.1348,"lng":5.5989}},{"number":22552,"name":"ToTheStars Robotics","org":"Liceul Tehnologic Administrativ Si De Servicii \u201dVictor Sl\u0103vescu\u201d","rookieYear":2022,"homeRegion":"RO","coords":{"lat":44.9286,"lng":26.0314}},{"number":22576,"name":"INACTIVE UK 463 - St Paul's Girls School - Techno Titans","org":"St. Paul's Girls' School","rookieYear":2022,"homeRegion":"GB","coords":{"lat":51.4949,"lng":-0.2186}},{"number":22586,"name":"CNapSys","org":"Colegiul National Silvania","rookieYear":2022,"homeRegion":"RO","coords":{"lat":47.1787,"lng":23.0544}},{"number":22590,"name":"MechaByte","org":"Paradis International College","rookieYear":2022,"homeRegion":"RO","coords":{"lat":47.1799,"lng":27.6204}},{"number":22593,"name":"Drakon","org":"Harris Academy Sutton ","rookieYear":2022,"homeRegion":"GB","coords":{"lat":51.3471,"lng":-0.1939}},{"number":22619,"name":"UK 450 - Poole Grammar School - Robotron","org":"Poole Grammar School","rookieYear":2022,"homeRegion":"GB","coords":{"lat":50.7536,"lng":-1.9797}},{"number":22621,"name":"InvenTism","org":"TISM","rookieYear":2022,"homeRegion":"NL","coords":{"lat":51.1348,"lng":5.5989}},{"number":22663,"name":"VNATION","org":"St Margaret Ward Catholic Academy","rookieYear":2022,"homeRegion":"GB","coords":{"lat":53.0677,"lng":-2.1964}},{"number":22697,"name":"CreativityR","org":"Liceul teoretic Varlaam Mitropolitul","rookieYear":2022,"homeRegion":"RO","coords":{"lat":47.145,"lng":27.622}},{"number":22706,"name":"SPC Beltel","org":"St. Patricks College Dungannon","rookieYear":2022,"homeRegion":"GB","coords":{"lat":54.4958,"lng":-6.7471}},{"number":22802,"name":"Swanage","org":"The Swanage School","rookieYear":2022,"homeRegion":"GB","coords":{"lat":50.6108,"lng":-1.9821}},{"number":22808,"name":"UK 457 - St. John's - Horizons","org":"St John's, Marlborough","rookieYear":2022,"homeRegion":"GB","coords":{"lat":51.4126,"lng":-1.7311}},{"number":22849,"name":"GEM","org":"Liceo Scientifico di Stato \"A. Calini\"","rookieYear":2022,"homeRegion":"IT","coords":{"lat":45.5474,"lng":10.2219}},{"number":22850,"name":"S.T.R.A.N.O.","org":"Istituto Rainerum","rookieYear":2022,"homeRegion":"IT","coords":{"lat":46.4969,"lng":11.3513}},{"number":22877,"name":"Excelsior Robotics","org":"The Petchey Academy","rookieYear":2022,"homeRegion":"GB","coords":{"lat":51.5525,"lng":-0.071}},{"number":22883,"name":"Akaki Gymnasium Zen Waves","org":"AKAKI GYMNASIUM","rookieYear":2022,"homeRegion":"CY","coords":{"lat":35.1345,"lng":33.1297}},{"number":22903,"name":"VegaMind","org":"Zavod 404 & Elektrotehni\u0161ko-ra\u010dunalni\u0161ka strokovna \u0161ola in gimnazija Ljubljana","rookieYear":2022,"homeRegion":"IT","coords":{"lat":46.0489,"lng":14.5031}},{"number":22916,"name":"TESEK Makarios III Robotica","org":"TESEK Makarios G","rookieYear":2022,"homeRegion":"CY","coords":{"lat":35.1459,"lng":33.3142}},{"number":22933,"name":"Akaki Gymnasium Junior Jokers","org":"AKAKI GYMNASIUM","rookieYear":2022,"homeRegion":"CY","coords":{"lat":35.1345,"lng":33.1297}},{"number":22941,"name":"Brute Force ","org":"Colegiul National Gib Mihaescu","rookieYear":2022,"homeRegion":"RO","coords":{"lat":44.6596,"lng":24.2594}},{"number":22948,"name":"ISL Robotics","org":"International School Of Lyon","rookieYear":2022,"homeRegion":"FR","coords":{"lat":45.7296,"lng":4.8066}},{"number":22954,"name":"The English School Mechano Mavericks","org":"The English School","rookieYear":2022,"homeRegion":"CY","coords":{"lat":35.1423,"lng":33.3722}},{"number":22998,"name":"CYB3RG0DS","org":"Colegiul National de Informatica","rookieYear":2022,"homeRegion":"RO","coords":{"lat":46.9354,"lng":26.3828}},{"number":23014,"name":"The Flying Dutchman","org":"The American School of The Hague","rookieYear":2022,"homeRegion":"NL","coords":{"lat":52.1464,"lng":4.4229}},{"number":23015,"name":"ROBOT TEAM ALPHA","org":"LICEUL SPECIAL \"SF\u00c2NTA MARIA\" ARAD","rookieYear":2022,"homeRegion":"RO","coords":{"lat":46.1123,"lng":20.9299}},{"number":23052,"name":"ILF - International Lego Frogs","org":"K\u00f6nigin-Katharina-Stift","rookieYear":2022,"homeRegion":"NL","coords":{"lat":48.7815,"lng":9.1838}},{"number":23098,"name":"PLANCK TEAM","org":"Istituto Max Planck","rookieYear":2022,"homeRegion":"IT","coords":{"lat":45.7063,"lng":12.2602}},{"number":23104,"name":"Team Wobot","org":"Cheadle Hulme High School","rookieYear":2022,"homeRegion":"GB","coords":{"lat":53.3646,"lng":-2.1866}},{"number":23107,"name":"French Beez","org":"Charles Poncet","rookieYear":2022,"homeRegion":"FR","coords":{"lat":46.0622,"lng":6.58}},{"number":23131,"name":"ARCANA CAB@NA","org":"IIS MARCONI PIERALISI","rookieYear":2022,"homeRegion":"IT","coords":{"lat":43.5192,"lng":13.2439}},{"number":23133,"name":"TO GET THERE","org":"IISS BACHELET-GALILEI","rookieYear":2022,"homeRegion":"IT","coords":{"lat":40.8185,"lng":16.4284}},{"number":23134,"name":"VT-Tech","org":"IIS 'VERONA TRENTO'","rookieYear":2022,"homeRegion":"IT","coords":{"lat":38.1935,"lng":15.5577}},{"number":23135,"name":"Ruiz 2","org":"ISTITUTO SUPERIORE \"A-RUIZ\"","rookieYear":2022,"homeRegion":"IT","coords":{"lat":37.2422,"lng":15.2243}},{"number":23136,"name":"Ruiz 1","org":"I.I.S. G. Arangio Ruiz Siracusa","rookieYear":2022,"homeRegion":"IT","coords":{"lat":37.2207,"lng":15.2252}},{"number":23137,"name":"Roboticus Optimus Maximus","org":"St Stephen's School","rookieYear":2022,"homeRegion":"IT","coords":{"lat":41.8818,"lng":12.487}},{"number":23147,"name":"RBL Tech Makers","org":"Institut Notre Dame de Bellegarde","rookieYear":2022,"homeRegion":"FR","coords":{"lat":45.8703,"lng":4.8409}},{"number":23149,"name":"Hall Robotiks","org":"Hall32","rookieYear":2022,"homeRegion":"FR","coords":{"lat":45.7775,"lng":3.0819}},{"number":23151,"name":"Axotech","org":"D\u00e9motz de la Salle","rookieYear":2022,"homeRegion":"FR","coords":{"lat":45.8678,"lng":5.9451}},{"number":23156,"name":"Ignition Union CNMK","org":"Colegiul Na\u021bional \u201eMihail Kog\u0103lniceanu\u201c","rookieYear":2022,"homeRegion":"RO","coords":{"lat":45.4269,"lng":28.0342}},{"number":23158,"name":"REPUBLIC OF DANUBE","org":"Liceul Teoretic Dun\u0103rea & Centrul Jude\u021bean de Excelen\u021b\u0103 Gala\u021bi","rookieYear":2022,"homeRegion":"RO","coords":{"lat":44.934,"lng":22.9052}},{"number":23161,"name":"CyberLIS76","org":"Liceul Teoretic Ioan Slavici","rookieYear":2022,"homeRegion":"RO","coords":{"lat":45.9064,"lng":27.0904}},{"number":23167,"name":"FrancescaTeam","org":"Family/Community","rookieYear":2022,"homeRegion":"IT","coords":{"lat":46.1861,"lng":10.6734}},{"number":23202,"name":"Asgard","org":"Economic College \"Ion Ghica\" Targoviste","rookieYear":2023,"homeRegion":"RO","coords":{"lat":44.9302,"lng":25.4488}},{"number":23203,"name":"Light Bulb Robotics","org":"Colegiul National \"Alexandru Odobescu\" & Family/Community","rookieYear":2023,"homeRegion":"RO","coords":{"lat":44.8573,"lng":24.8721}},{"number":23204,"name":"Space Otters 31","org":"Liceul Teoretic Ion Cantacuzino Pitesti","rookieYear":2023,"homeRegion":"RO","coords":{"lat":44.87,"lng":24.8431}},{"number":23205,"name":"RoboDojo","org":"Colegiul National Ana Aslan Timisoara","rookieYear":2023,"homeRegion":"RO","coords":{"lat":45.7559,"lng":21.2356}},{"number":23220,"name":"Space Otters","org":"LICEUL TEORETIC ION CANTACUZINO PITESTI","rookieYear":2023,"homeRegion":"RO","coords":{"lat":44.87,"lng":24.8431}},{"number":23221,"name":"Smilebots ","org":"Family/Community","rookieYear":2023,"homeRegion":"","coords":{"lat":46.025,"lng":8.9718}},{"number":23234,"name":"CyberBrains Robotics","org":"Home School","rookieYear":2023,"homeRegion":"RO","coords":{"lat":45.3981,"lng":26.9588}},{"number":23252,"name":"FTC NEOBOTS","org":"Family/Community","rookieYear":2023,"homeRegion":"NL","coords":{"lat":51.5646,"lng":5.461}},{"number":23253,"name":"TransPhormers","org":"Phorms Campus Berlin Mitte","rookieYear":2023,"homeRegion":"DE","coords":{"lat":52.5392,"lng":13.3846}},{"number":23266,"name":"Heyde-Tech","org":"Family/Community","rookieYear":2023,"homeRegion":"LT","coords":{"lat":55.3414,"lng":21.4606}},{"number":23271,"name":"ROBO.HC","org":"Liceul Tehnologic \"Henri Coanda\" Tulcea","rookieYear":2023,"homeRegion":"RO","coords":{"lat":45.2882,"lng":28.2781}},{"number":23283,"name":"M-Mais","org":"Emmauscollege","rookieYear":2023,"homeRegion":"NL","coords":{"lat":51.9244,"lng":4.4778}},{"number":23294,"name":"Screw Looose Scientists","org":"Hessama Tech-Jeugd","rookieYear":2023,"homeRegion":"NL","coords":{"lat":51.4548,"lng":5.6279}},{"number":23309,"name":"Breul Future","org":"KSG De Breul","rookieYear":2023,"homeRegion":"NL","coords":{"lat":52.0878,"lng":5.2024}},{"number":23339,"name":"DRHS - Alpha","org":"Denmark Road High School","rookieYear":2023,"homeRegion":"GB","coords":{"lat":51.8726,"lng":-2.2361}},{"number":23340,"name":"DRHS - Beta","org":"Denmark Road High School","rookieYear":2023,"homeRegion":"GB","coords":{"lat":51.8726,"lng":-2.2361}},{"number":23341,"name":"HTF Robot X","org":"Lyc\u00e9e Hautefeuille","rookieYear":2023,"homeRegion":"FR","coords":{"lat":48.9107,"lng":2.2691}},{"number":23372,"name":"deepbot","org":"Family/Community & ENDOFAP DON ORIONE & IS Alessandro Volta","rookieYear":2023,"homeRegion":"IT","coords":{"lat":45.0144,"lng":9.4435}},{"number":23379,"name":"Arctic Titans","org":"Nord-Troms videreg\u00e5ende skole","rookieYear":2023,"homeRegion":"","coords":{"lat":69.6521,"lng":19.0151}},{"number":23390,"name":"Dazzling Duckies","org":"Zwijsen College Veghel","rookieYear":2023,"homeRegion":"NL","coords":{"lat":51.6268,"lng":5.5404}},{"number":23417,"name":"The Energizers","org":"Wings Agora Roermond","rookieYear":2023,"homeRegion":"NL","coords":{"lat":51.1934,"lng":5.9883}},{"number":23452,"name":"TieWraps","org":"Heerbeeck College","rookieYear":2023,"homeRegion":"NL","coords":{"lat":51.4991,"lng":5.3822}},{"number":23472,"name":"Robotica.gr","org":"Family/Community","rookieYear":2023,"homeRegion":"GR","coords":{"lat":38.245,"lng":21.7417}},{"number":23473,"name":"Helios Robotics","org":"Liceul Teoretic Marin Preda","rookieYear":2023,"homeRegion":"RO","coords":{"lat":44.4596,"lng":26.0405}},{"number":23478,"name":"DynaByte","org":"Colegiul National Vasile Alecsandri & Centrul Jude\u021bean de Excelen\u021b\u0103 Gala\u021bi","rookieYear":2023,"homeRegion":"RO","coords":{"lat":45.4406,"lng":28.0521}},{"number":23483,"name":"Colegio Hispano Brit\u00e1nico","org":"Home School","rookieYear":2023,"homeRegion":"ES","coords":{"lat":28.92,"lng":-13.6453}},{"number":23486,"name":"Seramitae","org":"Colegiul National Costache Negri","rookieYear":2023,"homeRegion":"RO","coords":{"lat":45.4295,"lng":28.033}},{"number":23487,"name":"Alb_10","org":"TurgutOzal Colleges","rookieYear":2023,"homeRegion":"","coords":{"lat":41.3347,"lng":19.8024}},{"number":23525,"name":"Tech Campus De School","org":"Family/Community","rookieYear":2023,"homeRegion":"NL","coords":{"lat":52.2027,"lng":4.6312}},{"number":23576,"name":"ORION","org":"Liceul Teoretic \"Mihail Kogalniceanu\" Vaslui & Liceul Teoretic \"Emil Racovita\" Vaslui & Colegiul National \"Anghel Rugina\" Vaslui","rookieYear":2023,"homeRegion":"RO","coords":{"lat":46.6418,"lng":27.7379}},{"number":23662,"name":"UK 515 - JMHS ","org":"john masefield high school","rookieYear":2023,"homeRegion":"GB","coords":{"lat":52.032,"lng":-2.4244}},{"number":23753,"name":"Albanian_Teams","org":"Turgut Ozal College","rookieYear":2023,"homeRegion":"","coords":{"lat":41.3451,"lng":19.7668}},{"number":23783,"name":"RoboticsTeam","org":"Boy Scouts of America","rookieYear":2023,"homeRegion":"RO","coords":{"lat":44.5148,"lng":26.0866}},{"number":23800,"name":"Robozzi","org":"Colegiul Na\u021bional Costache Negruzzi Ia\u0219i","rookieYear":2023,"homeRegion":"RO","coords":{"lat":47.1733,"lng":27.5694}},{"number":23823,"name":"Robotics Infinity","org":"Family/Community","rookieYear":2023,"homeRegion":"HU","coords":{"lat":47.5603,"lng":19.0978}},{"number":23846,"name":"Aeres Green Tech Frisians","org":"Aeres VMBO Buitenpost","rookieYear":2023,"homeRegion":"NL","coords":{"lat":53.254,"lng":6.1442}},{"number":23862,"name":"Stoles","org":"Family/Community","rookieYear":2023,"homeRegion":"GR","coords":{"lat":40.6698,"lng":22.9013}},{"number":23877,"name":"UK 526 - BSG - Orange Bytes","org":"Bournemouth School for Girls","rookieYear":2023,"homeRegion":"GB","coords":{"lat":50.7508,"lng":-1.8522}},{"number":23908,"name":"St Stephen's Other Team","org":"St Stephen's School","rookieYear":2023,"homeRegion":"IT","coords":{"lat":41.8818,"lng":12.487}},{"number":23909,"name":"Raaybots","org":"Raayland College","rookieYear":2023,"homeRegion":"NL","coords":{"lat":51.5193,"lng":5.977}},{"number":24003,"name":"Handelsschool Hasselt","org":"Provinciale Handelsschool Hasselt","rookieYear":2023,"homeRegion":"NL","coords":{"lat":50.9387,"lng":5.3451}},{"number":24032,"name":"Kodikas Robotics","org":"Centrul Jude\u021bean de Excelen\u021b\u0103 Br\u0103ila","rookieYear":2023,"homeRegion":"RO","coords":{"lat":45.2906,"lng":27.9682}},{"number":24033,"name":"Alphatronic","org":"Transylvania College","rookieYear":2023,"homeRegion":"RO","coords":{"lat":46.7641,"lng":23.6248}},{"number":24037,"name":"Start Code","org":"STREAM Forward & Colegiul Energetic Ramnicu Valcea & Stream Forward","rookieYear":2023,"homeRegion":"RO","coords":{"lat":45.1212,"lng":24.3657}},{"number":24069,"name":"ROBOLIBRE","org":"Lyc\u00e9e Don Bosco","rookieYear":2023,"homeRegion":"FR","coords":{"lat":45.7521,"lng":4.8191}},{"number":24072,"name":"No","org":"Family/Community","rookieYear":2023,"homeRegion":"DE","coords":{"lat":47.9327,"lng":8.4948}},{"number":24090,"name":"Trojan Robotics","org":"The American School of The Hague","rookieYear":2023,"homeRegion":"NL","coords":{"lat":52.1464,"lng":4.4229}},{"number":24138,"name":"TECH WIZARDS","org":"Curio","rookieYear":2023,"homeRegion":"NL","coords":{"lat":51.4945,"lng":4.2872}},{"number":24139,"name":"MILK","org":"NGO Tavo robotas","rookieYear":2023,"homeRegion":"LT","coords":{"lat":55.513,"lng":21.3905}},{"number":24145,"name":"ROBO-TECH","org":"Family/Community","rookieYear":2023,"homeRegion":"LT","coords":{"lat":54.8996,"lng":23.8957}},{"number":24155,"name":"BlueSpace","org":"Colegiul National Elena Cuza","rookieYear":2023,"homeRegion":"RO","coords":{"lat":44.4175,"lng":26.0246}},{"number":24190,"name":"Lyc\u00e9e Carriat 1","org":"Lyc\u00e9e Joseph Marie Carriat","rookieYear":2023,"homeRegion":"FR","coords":{"lat":46.1964,"lng":5.2242}},{"number":24266,"name":"VIP","org":"Family/Community","rookieYear":2023,"homeRegion":"RO","coords":{"lat":44.3655,"lng":26.1169}},{"number":24267,"name":"DEJA VU","org":"Family/Community","rookieYear":2023,"homeRegion":"RO","coords":{"lat":44.3655,"lng":26.1169}},{"number":24268,"name":"DEJA VU","org":"Family/Community","rookieYear":2023,"homeRegion":"RO","coords":{"lat":44.3655,"lng":26.1169}},{"number":24269,"name":"DEJA VU","org":"Family/Community","rookieYear":2023,"homeRegion":"RO","coords":{"lat":44.3655,"lng":26.1169}},{"number":24273,"name":"ROBO.HC1","org":"Liceul Tehnologic Henri Coanda Tulcea","rookieYear":2023,"homeRegion":"RO","coords":{"lat":45.2882,"lng":28.2781}},{"number":24274,"name":"TechWizards007","org":"Home School","rookieYear":2023,"homeRegion":"NL","coords":{"lat":50.9223,"lng":5.1884}},{"number":24276,"name":"Mountain Rocket","org":"Lyc\u00e9e CECAM","rookieYear":2023,"homeRegion":"FR","coords":{"lat":46.1432,"lng":6.4588}},{"number":24279,"name":"ElectRoBot","org":"COLEGIUL NA\u0162IONAL \"MIHAI EMINESCU\"","rookieYear":2023,"homeRegion":"RO","coords":{"lat":46.9247,"lng":25.349}},{"number":24308,"name":"BrightCluster","org":"Colegiul National \"Ferdinand\" I","rookieYear":2023,"homeRegion":"RO","coords":{"lat":46.5694,"lng":26.9059}},{"number":24310,"name":"EXOROS","org":"Colegiul Tehnic \"George Baritiu\" Baia Mare","rookieYear":2023,"homeRegion":"RO","coords":{"lat":47.6554,"lng":23.5708}},{"number":24313,"name":"We R1","org":"St Edwards School","rookieYear":2023,"homeRegion":"GB","coords":{"lat":50.7285,"lng":-1.9824}},{"number":24322,"name":"HOPE","org":"St. Peter's Church of England Aided School","rookieYear":2023,"homeRegion":"GB","coords":{"lat":50.7184,"lng":-3.4826}},{"number":24325,"name":"BarrelBots","org":"The King's School, Ottery St Mary","rookieYear":2023,"homeRegion":"GB","coords":{"lat":50.7504,"lng":-3.2928}},{"number":24345,"name":"SPARKTECH","org":"National Computer College Tudor Vianu","rookieYear":2023,"homeRegion":"RO","coords":{"lat":44.4579,"lng":26.0798}},{"number":24372,"name":"Epiteugma Revved Up 2","org":"Home School","rookieYear":2023,"homeRegion":"CY","coords":{"lat":35.1097,"lng":33.3052}},{"number":24373,"name":"Arhaggelos Gymnasium Robosteins","org":"Gymnasium Arhaggelos Lakatamias","rookieYear":2023,"homeRegion":"CY","coords":{"lat":35.1365,"lng":33.304}},{"number":24374,"name":"AquaTech Robotics","org":"International Computer Highschool Constanta","rookieYear":2023,"homeRegion":"RO","coords":{"lat":44.3612,"lng":28.4861}},{"number":24394,"name":"UK 542 - Newcastle Royal Grammar School - Robo Kai","org":"RGS Newcastle","rookieYear":2023,"homeRegion":"GB","coords":{"lat":54.9842,"lng":-1.6101}},{"number":24399,"name":"ToastedMinds","org":"Liceul Sanitar Antim Ivireanu","rookieYear":2023,"homeRegion":"RO","coords":{"lat":45.1192,"lng":24.3692}},{"number":24401,"name":"UK OOO - Organisation - Mountbatten","org":"The Mountbatten School","rookieYear":2023,"homeRegion":"GB","coords":{"lat":50.9828,"lng":-1.4704}},{"number":24406,"name":"Pascal Lefkosia Tech Tigers","org":"PASCAL English School Lefkosia","rookieYear":2023,"homeRegion":"CY","coords":{"lat":35.1374,"lng":33.2765}},{"number":24408,"name":"Gordon's School Robotics","org":"Gordon's School","rookieYear":2023,"homeRegion":"GB","coords":{"lat":51.3202,"lng":-0.5565}},{"number":24444,"name":"Spykers on low water","org":"Rijswijks Lyceum","rookieYear":2023,"homeRegion":"NL","coords":{"lat":52.0436,"lng":4.3121}},{"number":24445,"name":"DHSB1","org":"Devonport High School for Boys","rookieYear":2023,"homeRegion":"GB","coords":{"lat":50.3737,"lng":-4.1627}},{"number":24446,"name":"LAZARUS ASCENDING","org":"LICEUL TEHNOLOGIC \u201dMIHAI VITEAZU\u201d","rookieYear":2023,"homeRegion":"RO","coords":{"lat":45.3749,"lng":23.2855}},{"number":24470,"name":"INNOVATRON","org":"Liceul Emanuel & Liceul Emanuel","rookieYear":2023,"homeRegion":"RO","coords":{"lat":46.7785,"lng":23.5768}},{"number":24472,"name":"NEON","org":"Family/Community","rookieYear":2023,"homeRegion":"LT","coords":{"lat":54.6878,"lng":25.2781}},{"number":24473,"name":"ARGON","org":"Family/Community","rookieYear":2023,"homeRegion":"LT","coords":{"lat":54.6878,"lng":25.2781}},{"number":24474,"name":"Vilnius Lyceum Robotics","org":"Vilnius Lyceum","rookieYear":2023,"homeRegion":"LT","coords":{"lat":54.7174,"lng":25.3151}},{"number":24475,"name":"PlumBum","org":"Family/Community","rookieYear":2023,"homeRegion":"LT","coords":{"lat":54.6878,"lng":25.2781}},{"number":24476,"name":"KRYPTON","org":"Family/Community","rookieYear":2023,"homeRegion":"LT","coords":{"lat":55.9211,"lng":21.063}},{"number":24477,"name":"VJG Electron","org":"Family/Community","rookieYear":2023,"homeRegion":"LT","coords":{"lat":54.6878,"lng":25.2781}},{"number":24478,"name":"EngiNeerds","org":"Colegiul National \"Radu Greceanu\"","rookieYear":2023,"homeRegion":"RO","coords":{"lat":44.4319,"lng":24.3511}},{"number":24497,"name":"The G C School Curiositors","org":"The G C School of Careers","rookieYear":2023,"homeRegion":"CY","coords":{"lat":35.1566,"lng":33.3664}},{"number":24499,"name":"RLS Robotics","org":"The Royal Liberty School","rookieYear":2023,"homeRegion":"GB","coords":{"lat":51.5861,"lng":0.2094}},{"number":24500,"name":"LITBOT","org":"Kaunas jesuit high school","rookieYear":2023,"homeRegion":"LT","coords":{"lat":54.896,"lng":23.8856}},{"number":24530,"name":"ElectroB0tics","org":"Home School","rookieYear":2023,"homeRegion":"RO","coords":{"lat":45.1421,"lng":24.6695}},{"number":24553,"name":"TechWolves","org":"Family/Community","rookieYear":2023,"homeRegion":"DE","coords":{"lat":52.4201,"lng":10.715}},{"number":24554,"name":"AVOCADO ROBOTICS","org":"LICEUL TEORETIC DE INFORMATICA GRIGORE MOISIL IASI","rookieYear":2023,"homeRegion":"RO","coords":{"lat":47.1854,"lng":27.5666}},{"number":24565,"name":"OrionX","org":"London Academy of Excellence Tottenham","rookieYear":2023,"homeRegion":"GB","coords":{"lat":51.6055,"lng":-0.0664}},{"number":24566,"name":"LTTV","org":"Liceul Teoretic \"Traian Vuia\" F\u0103get","rookieYear":2023,"homeRegion":"RO","coords":{"lat":45.8582,"lng":22.1765}},{"number":24568,"name":"Dragonbots","org":"St Gabriel's School","rookieYear":2023,"homeRegion":"GB","coords":{"lat":51.2529,"lng":-2.4325}},{"number":24569,"name":"INACTIVE UK 530 -Twynham School - TWY Robotics","org":"Twynham School","rookieYear":2023,"homeRegion":"GB","coords":{"lat":50.7328,"lng":-1.7837}},{"number":24570,"name":"Frome College","org":"Frome College","rookieYear":2023,"homeRegion":"GB","coords":{"lat":51.2441,"lng":-2.3117}},{"number":24583,"name":"Fulford","org":"Fulford School","rookieYear":2023,"homeRegion":"GB","coords":{"lat":53.9364,"lng":-1.0644}},{"number":24617,"name":"Saint Aubin La Salle","org":"Lyc\u00e9e Saint Aubin La Salle","rookieYear":2023,"homeRegion":"FR","coords":{"lat":47.4909,"lng":-0.5034}},{"number":24637,"name":"Black Phantoms","org":"Asocia\u021bia Noi Zidim Viitorul & Constantin Carabella National College","rookieYear":2023,"homeRegion":"RO","coords":{"lat":44.9268,"lng":25.4628}},{"number":24638,"name":"The Grammar School  RoboXpress","org":"Home School","rookieYear":2023,"homeRegion":"CY","coords":{"lat":35.1491,"lng":33.3521}},{"number":24639,"name":"Kraken","org":"St Paul's Girls' School","rookieYear":2023,"homeRegion":"GB","coords":{"lat":51.4949,"lng":-0.2186}},{"number":24640,"name":"INACTIVE UK - 563 - iO - St. Paul's Girls' School ","org":"St Paul's Girls' School","rookieYear":2023,"homeRegion":"GB","coords":{"lat":51.4949,"lng":-0.2186}},{"number":24642,"name":"UK 477 - Kingsdale Foundation School- Code Name","org":"Kingsdale Foundation School","rookieYear":2023,"homeRegion":"GB","coords":{"lat":51.4324,"lng":-0.0845}},{"number":24647,"name":"Electric sheep","org":"Family/Community","rookieYear":2023,"homeRegion":"LT","coords":{"lat":54.8996,"lng":23.8957}},{"number":24648,"name":"UK 547 - Outwood Academy Newbold -   Short Circuit","org":"Outwood Academy Newbold","rookieYear":2023,"homeRegion":"GB","coords":{"lat":53.2525,"lng":-1.4387}},{"number":24650,"name":"Mercia Robotics","org":"Mercia School","rookieYear":2023,"homeRegion":"GB","coords":{"lat":53.3515,"lng":-1.4974}},{"number":24694,"name":"UK 471 - Fulham Cross Girls' School -","org":"Fulham Cross Girls' School","rookieYear":2023,"homeRegion":"GB","coords":{"lat":51.4811,"lng":-0.215}},{"number":24696,"name":"Reigate","org":"Reigate Grammar School","rookieYear":2023,"homeRegion":"GB","coords":{"lat":51.2373,"lng":-0.1961}},{"number":24715,"name":"Pixel Perfect","org":"Gillingham School","rookieYear":2023,"homeRegion":"GB","coords":{"lat":51.0386,"lng":-2.2687}},{"number":24716,"name":"Bishop Perowne C of E College","org":"Bishop Perowne C of E College","rookieYear":2023,"homeRegion":"GB","coords":{"lat":52.2063,"lng":-2.2165}},{"number":24717,"name":"INACTIVE - UK 242 - Bishop Perowne C of E College - TEAM MBO","org":"Bishop Perowne C of E College","rookieYear":2023,"homeRegion":"GB","coords":{"lat":52.2063,"lng":-2.2165}},{"number":24718,"name":"UK  -490- InCntrl","org":"Co-op Academy North Manchester","rookieYear":2023,"homeRegion":"GB","coords":{"lat":53.5262,"lng":-2.1881}},{"number":24719,"name":"UK 519 The Whitehaven Academy","org":"The Whitehaven Academy","rookieYear":2023,"homeRegion":"GB","coords":{"lat":54.5392,"lng":-3.5554}},{"number":24720,"name":"Ladywell Robotics","org":"Prendergast Ladywell School","rookieYear":2023,"homeRegion":"GB","coords":{"lat":51.4508,"lng":-0.0281}},{"number":24739,"name":"Cyber Sisters","org":"St Michaels Middle School","rookieYear":2023,"homeRegion":"GB","coords":{"lat":53.1896,"lng":-2.4463}},{"number":24740,"name":"uk539-Shaftesburyschool-roborangers","org":"shaftesbury  School","rookieYear":2023,"homeRegion":"GB","coords":{"lat":51.0025,"lng":-2.1894}},{"number":24752,"name":"INACTIVE Virtual Memory","org":"St Anselm's College & St Anselm's College","rookieYear":2023,"homeRegion":"GB","coords":{"lat":53.3896,"lng":-3.0478}},{"number":24753,"name":"Newcastle Academy","org":"Newcastle Academy","rookieYear":2023,"homeRegion":"GB","coords":{"lat":53.0271,"lng":-2.2239}},{"number":24775,"name":"Test Alpha","org":"Blabla","rookieYear":2023,"homeRegion":"FR","coords":{"lat":45.7578,"lng":4.832}},{"number":24807,"name":"UK 492 - Noadswood School - Noadsbot","org":"Noadswood School","rookieYear":2023,"homeRegion":"GB","coords":{"lat":50.8594,"lng":-1.4165}},{"number":24811,"name":"Mechatronix 2023","org":"Cambourne Village College","rookieYear":2023,"homeRegion":"GB","coords":{"lat":52.2227,"lng":-0.0847}},{"number":24812,"name":"CyberNet Athienou CyberSquad","org":"Home School","rookieYear":2023,"homeRegion":"CY","coords":{"lat":35.0594,"lng":33.5424}},{"number":24838,"name":"Archbishop T3mple","org":"Archbishop Temple School","rookieYear":2023,"homeRegion":"GB","coords":{"lat":53.7837,"lng":-2.7033}},{"number":24839,"name":"UK 570 - Ravens Wood-  Ravens Wood  23","org":"Ravens Wood School & Ravens Wood School","rookieYear":2023,"homeRegion":"GB","coords":{"lat":51.3704,"lng":0.0367}},{"number":24840,"name":"UK 074 - Helston Community College","org":"Helston Community College","rookieYear":2023,"homeRegion":"GB","coords":{"lat":50.1096,"lng":-5.2718}},{"number":24841,"name":"UK 540 - SNHS - Stur Bot","org":"Sturminster Newton High School","rookieYear":2023,"homeRegion":"GB","coords":{"lat":50.9358,"lng":-2.3034}},{"number":24856,"name":"UK 000- Kayla Test","org":"Home School","rookieYear":2023,"homeRegion":"GB","coords":{"lat":51.363,"lng":-0.2032}},{"number":24869,"name":"The Hussars","org":"Garnock Community Campus","rookieYear":2023,"homeRegion":"ECB","coords":{"lat":55.7407,"lng":-4.6686}},{"number":24875,"name":"BlackBirdBroke","org":"Atheneum Merelbeke","rookieYear":2023,"homeRegion":"NL","coords":{"lat":50.9915,"lng":3.7401}},{"number":24878,"name":"The Senior School Circuit Breakers","org":"The Junior and Senior School","rookieYear":2023,"homeRegion":"CY","coords":{"lat":35.1552,"lng":33.3516}},{"number":24890,"name":"StarBot","org":"Coll\u00e8ge Evariste Galois","rookieYear":2023,"homeRegion":"FR","coords":{"lat":48.8872,"lng":2.2203}},{"number":24891,"name":"UK OOO - Manchester Academy - MARS Robotics","org":"Manchester Academy  & Manchester Academy ","rookieYear":2023,"homeRegion":"GB","coords":{"lat":53.4637,"lng":-2.2316}},{"number":24892,"name":"Trop'bot_V2","org":"LPO Carriat - Education Nationale","rookieYear":2023,"homeRegion":"FR","coords":{"lat":46.1946,"lng":5.2183}},{"number":24908,"name":"Quarry Robotics","org":"Calderstones School","rookieYear":2023,"homeRegion":"GB","coords":{"lat":53.3827,"lng":-2.9016}},{"number":24909,"name":"StarLight","org":"Colegiul National \"Alexandru Odobescu\" Pitesti","rookieYear":2023,"homeRegion":"RO","coords":{"lat":44.8619,"lng":24.8766}},{"number":24928,"name":"HYPERION","org":"COLEGIUL NATIONAL MIHAI EMINESCU","rookieYear":2023,"homeRegion":"RO","coords":{"lat":47.7435,"lng":26.6489}},{"number":24939,"name":"Avogadro","org":"FCM Construction &Istituto Istruzione Superiore Amedeo Avogadro","rookieYear":2023,"homeRegion":"IT","coords":{"lat":45.3252,"lng":8.4228}},{"number":24949,"name":"ITEC 2","org":"Lyc\u00e9e CARRIAT ","rookieYear":2023,"homeRegion":"FR","coords":{"lat":46.1964,"lng":5.2242}},{"number":24951,"name":"H533 Bots","org":"Holmer Green Senior School","rookieYear":2023,"homeRegion":"GB","coords":{"lat":51.666,"lng":-0.7}},{"number":24952,"name":"INACTIVE UK 533 - Holmer Green Senior School - H533Bot ","org":"Holmer Green Senior School","rookieYear":2023,"homeRegion":"GB","coords":{"lat":51.666,"lng":-0.7}},{"number":24964,"name":"AstraDynamiX","org":"LICEUL TEORETIC SCOALA EUROPEANA BUCURESTI","rookieYear":2023,"homeRegion":"RO","coords":{"lat":44.4833,"lng":26.0591}},{"number":24966,"name":"Portables UBITECH","org":"mellonLAB","rookieYear":2023,"homeRegion":"GR","coords":{"lat":37.9432,"lng":23.6471}},{"number":24967,"name":"Wider horizons","org":"Mary Webb School and Science College","rookieYear":2023,"homeRegion":"GB","coords":{"lat":52.6478,"lng":-2.882}},{"number":24995,"name":"CRAZY CARME","org":"LYCEE ARBEZ CARME","rookieYear":2023,"homeRegion":"FR","coords":{"lat":46.2497,"lng":5.6317}},{"number":25001,"name":"Tech-Max ","org":"Szko\u0142a Podstawowa nr 2 im. Marsza\u0142ka J\u00f3zefa Pi\u0142sudskiego w Tomaszowie Lubelskim","rookieYear":2023,"homeRegion":"PL","coords":{"lat":50.437,"lng":23.4178}},{"number":25009,"name":"Walli\u00b0ND","org":"Institution Notre Dame","rookieYear":2023,"homeRegion":"FR","coords":{"lat":44.9303,"lng":4.9096}},{"number":25010,"name":"PYTHON X","org":"LYCEE LA SALLE SAINT LOUIS","rookieYear":2023,"homeRegion":"FR","coords":{"lat":45.8302,"lng":-0.8706}},{"number":25011,"name":"Roborangers","org":"Shaftesbury School","rookieYear":2023,"homeRegion":"GB","coords":{"lat":51.0025,"lng":-2.1894}},{"number":25012,"name":"Cotiere robotic","org":"Lyc\u00e9e de la Cotiere","rookieYear":2023,"homeRegion":"FR","coords":{"lat":45.8467,"lng":5.0364}},{"number":25017,"name":"First Cotiere","org":"Lyc\u00e9e de la Cotiere","rookieYear":2023,"homeRegion":"FR","coords":{"lat":45.8467,"lng":5.0364}},{"number":25022,"name":"Blades Runners 92","org":"LYCEE LEONARD DE VINCI","rookieYear":2023,"homeRegion":"FR","coords":{"lat":48.897,"lng":2.278}},{"number":25023,"name":"Robograngers","org":"Outwood Grange Academy","rookieYear":2023,"homeRegion":"GB","coords":{"lat":53.708,"lng":-1.5134}},{"number":25024,"name":"INACTIVE UK 470 - All Hallows Catholic School - Kryten","org":"All Hallows Catholic School","rookieYear":2023,"homeRegion":"GB","coords":{"lat":51.2346,"lng":-0.7725}},{"number":25025,"name":"UK 525 - Rosebery School - Rosebery","org":"Rosebery School","rookieYear":2023,"homeRegion":"GB","coords":{"lat":51.328,"lng":-0.278}},{"number":25026,"name":"Baines School","org":"Baines School","rookieYear":2023,"homeRegion":"GB","coords":{"lat":53.8366,"lng":-2.9946}},{"number":25027,"name":"UK 528 - QEGS Blackburn - Team QEGS","org":"Queen Elizabeth's Grammar School","rookieYear":2023,"homeRegion":"GB","coords":{"lat":53.7533,"lng":-2.4956}},{"number":25029,"name":"Robotic Hart","org":"The Hart School & The Hart School","rookieYear":2023,"homeRegion":"GB","coords":{"lat":52.7545,"lng":-1.945}},{"number":25031,"name":"Sid'1","org":"\u00c9TABLISSEMENT SAINT JOSEPH LA SIDOINE","rookieYear":2023,"homeRegion":"FR","coords":{"lat":45.9412,"lng":4.7735}},{"number":25032,"name":"INACTIVE UK 509 - Ely College - Trident","org":"Ely College","rookieYear":2023,"homeRegion":"GB","coords":{"lat":52.3987,"lng":0.2637}},{"number":25042,"name":"DiniTech","org":"Lyc\u00e9e Professionnel Am\u00e9d\u00e9e Gordini","rookieYear":2023,"homeRegion":"FR","coords":{"lat":45.8846,"lng":6.1097}},{"number":25043,"name":"UK 508 - Boroughmuir HS - Photoelectric","org":"Boroughmuir High School","rookieYear":2023,"homeRegion":"GB","coords":{"lat":55.9383,"lng":-3.209}},{"number":25044,"name":"S.T.A.R.T","org":"Thomas Alleyne's High School","rookieYear":2023,"homeRegion":"GB","coords":{"lat":52.9023,"lng":-1.8631}},{"number":25045,"name":"Ch@mpibotTeam","org":"Lyc\u00e9e Champagnat","rookieYear":2023,"homeRegion":"FR","coords":{"lat":45.6316,"lng":4.4604}},{"number":25052,"name":"FSA21T","org":"Lyc\u00e9e Polyvalent Astier","rookieYear":2023,"homeRegion":"FR","coords":{"lat":44.6272,"lng":4.3855}},{"number":25053,"name":"Metal Gear Lyon","org":"Coll\u00e8ge Sainte-Marie Lyon","rookieYear":2023,"homeRegion":"FR","coords":{"lat":45.5275,"lng":4.8687}},{"number":25056,"name":"Fusion ","org":"Harris Academy Sutton ","rookieYear":2023,"homeRegion":"GB","coords":{"lat":51.3471,"lng":-0.1939}},{"number":25057,"name":" UK OOO - Weavers","org":"Weavers Academy","rookieYear":2023,"homeRegion":"GB","coords":{"lat":52.3011,"lng":-0.7125}},{"number":25059,"name":"The D-Code","org":"Lewis Girls' School","rookieYear":2023,"homeRegion":"ECB","coords":{"lat":52.3872,"lng":-0.7197}},{"number":25062,"name":"DeGreeS of Freedom","org":"REV &Derby Grammar School","rookieYear":2023,"homeRegion":"GB","coords":{"lat":52.8942,"lng":-1.5272}},{"number":25063,"name":"GRENA2","org":"LYCEE LA FAYETTE","rookieYear":2023,"homeRegion":"FR","coords":{"lat":45.7635,"lng":3.1296}},{"number":25064,"name":"Mamie Martine","org":"Lyc\u00e9e La Fayette","rookieYear":2023,"homeRegion":"FR","coords":{"lat":45.7635,"lng":3.1296}},{"number":25065,"name":"Compagnons du Devoir et du Tour de France Albi","org":"Compagnons du Devoir et du Tour de France","rookieYear":2023,"homeRegion":"FR","coords":{"lat":43.6025,"lng":1.3965}},{"number":25066,"name":"LLA Robotique","org":"Lyc\u00e9e Louis ARMAND","rookieYear":2023,"homeRegion":"FR","coords":{"lat":46.0011,"lng":4.7053}},{"number":25067,"name":"UK 553 - School- Harris St johns wood","org":"Harris academy st johns wood","rookieYear":2023,"homeRegion":"GB","coords":{"lat":51.5093,"lng":-0.1397}},{"number":25070,"name":"Talos EduRobots","org":"Family/Community","rookieYear":2023,"homeRegion":"GR","coords":{"lat":35.0053,"lng":25.7354}},{"number":25072,"name":" UK OOO - BarkingAbbeySchool - BarkingTechies","org":"Barking abbey school","rookieYear":2023,"homeRegion":"GB","coords":{"lat":51.5437,"lng":0.1035}},{"number":25074,"name":"Tech it ISII","org":"Istituto Superiore G Marconi","rookieYear":2023,"homeRegion":"IT","coords":{"lat":45.0521,"lng":9.7063}},{"number":25077,"name":"UK 536","org":"UTC Derby Pride Park","rookieYear":2023,"homeRegion":"GB","coords":{"lat":52.9137,"lng":-1.459}},{"number":25101,"name":"UK 538 - Boroughmuir HS - MuirTech","org":"Boroughmuir High School","rookieYear":2023,"homeRegion":"GB","coords":{"lat":55.9383,"lng":-3.209}},{"number":25110,"name":"SCRAPS by FutureLab","org":"FUTURELAB EDUCATION","rookieYear":2023,"homeRegion":"GR","coords":{"lat":40.5803,"lng":22.9533}},{"number":25113,"name":"OdoBotics","org":"BrainDevelopment","rookieYear":2023,"homeRegion":"RO","coords":{"lat":44.8573,"lng":24.8721}},{"number":25116,"name":"Draniki","org":"Family/Community","rookieYear":2023,"homeRegion":"IND","coords":{"lat":53.9466,"lng":27.6867}},{"number":25117,"name":"UK OOO - Greenfields School - Green Metal","org":"Greenfields School","rookieYear":2023,"homeRegion":"GB","coords":{"lat":51.088,"lng":0.0148}},{"number":25118,"name":"FIRST UK Test","org":"FIRST UK Test","rookieYear":2023,"homeRegion":"GB","coords":{"lat":51.5,"lng":-0.1924}},{"number":25126,"name":"Jole544","org":"lyc\u00e9e la Joliverie","rookieYear":2023,"homeRegion":"FR","coords":{"lat":47.2035,"lng":-1.4992}},{"number":25133,"name":"We Robot","org":"WE ROBOT","rookieYear":2023,"homeRegion":"FR","coords":{"lat":49.1586,"lng":1.3305}},{"number":25141,"name":"UK 559 - Robocode - Robocode","org":"Family/Community","rookieYear":2023,"homeRegion":"GB","coords":{"lat":52.413,"lng":-1.7769}},{"number":25142,"name":"Baines School","org":"Baines School","rookieYear":2023,"homeRegion":"GB","coords":{"lat":53.8366,"lng":-2.9946}},{"number":25145,"name":"ILC Robotix","org":"Colegiul National Ion Luca Caragiale Bucuresti","rookieYear":2023,"homeRegion":"RO","coords":{"lat":44.4583,"lng":26.0952}},{"number":25147,"name":"Code Play","org":"IIS Copernico Pasoli","rookieYear":2023,"homeRegion":"IT","coords":{"lat":45.4424,"lng":11.0323}},{"number":25150,"name":"Compagnons du Devoir et du Tour de France Colomiers","org":"AOCDTF Compagnons du Devoir et du Tour de France","rookieYear":2023,"homeRegion":"FR","coords":{"lat":47.3961,"lng":0.6868}},{"number":25151,"name":"Robodeers","org":"Hinchingbrooke School","rookieYear":2023,"homeRegion":"GB","coords":{"lat":52.3278,"lng":-0.2031}},{"number":25180,"name":"UK  OOO - Hardenhuish School - Team 23","org":"Hardenhuish School","rookieYear":2023,"homeRegion":"GB","coords":{"lat":51.4701,"lng":-2.1289}},{"number":25181,"name":"PixelSyndicate","org":"Liceul Teoretic Benjamin Franklin","rookieYear":2023,"homeRegion":"RO","coords":{"lat":44.4298,"lng":26.1525}},{"number":25190,"name":"King","org":"Liceo King","rookieYear":2023,"homeRegion":"IT","coords":{"lat":44.3828,"lng":9.0443}},{"number":25198,"name":"Akaki Gymnasium VAUXHALL VIVA HB","org":"Akaki  GYmnasium","rookieYear":2023,"homeRegion":"CY","coords":{"lat":35.1345,"lng":33.1297}},{"number":25203,"name":"Boprotech49","org":"Dom Sortais","rookieYear":2023,"homeRegion":"FR","coords":{"lat":47.1971,"lng":-0.9996}},{"number":25205,"name":"P@bloNerud@","org":"LPO PABLO NERUDA","rookieYear":2023,"homeRegion":"FR","coords":{"lat":45.1837,"lng":5.7545}},{"number":25224,"name":"Ch@mpibot team","org":"Lyc\u00e9e Champagnat","rookieYear":2023,"homeRegion":"FR","coords":{"lat":45.6316,"lng":4.4604}},{"number":25225,"name":"Afton Robotics","org":"Liceul Teoretic Ion Constantin Br\u0103tianu","rookieYear":2023,"homeRegion":"RO","coords":{"lat":45.6104,"lng":22.9494}},{"number":25227,"name":"Steel Brain","org":"Associazione Art\u00f9","rookieYear":2023,"homeRegion":"IT","coords":{"lat":44.4076,"lng":8.9348}},{"number":25257,"name":"Team Hungary","org":"Mathias Corvinus Collegium","rookieYear":2023,"homeRegion":"HU","coords":{"lat":47.478,"lng":19.0393}},{"number":25259,"name":"PJBot","org":"Lyc\u00e9e Pierre Jo\u00ebl Bont\u00e9","rookieYear":2023,"homeRegion":"FR","coords":{"lat":45.8791,"lng":3.1111}},{"number":25267,"name":"ITEC 1","org":"Lyc\u00e9e Carriat","rookieYear":2023,"homeRegion":"FR","coords":{"lat":46.1964,"lng":5.2242}},{"number":25268,"name":"Powercut Robotics ","org":"Langley Park School for Boys","rookieYear":2023,"homeRegion":"GB","coords":{"lat":51.389,"lng":-0.0199}},{"number":25269,"name":"Industria","org":"Fettes College","rookieYear":2023,"homeRegion":"GB","coords":{"lat":55.9651,"lng":-3.2278}},{"number":25270,"name":"PLASTROBOT","org":"PLASTICAMPUS","rookieYear":2023,"homeRegion":"FR","coords":{"lat":46.2419,"lng":5.6293}},{"number":25273,"name":"ISL Robotics Veterans","org":"International School of Lyon","rookieYear":2023,"homeRegion":"FR","coords":{"lat":45.7296,"lng":4.8066}},{"number":25274,"name":"UK 577 - Ilford County High School - Nexus","org":"Ilford County High School","rookieYear":2023,"homeRegion":"GB","coords":{"lat":51.5924,"lng":0.0782}},{"number":25278,"name":"Homosapiens19053","org":"Colegiul National \"B.P. Hasdeu\"","rookieYear":2023,"homeRegion":"RO","coords":{"lat":45.1476,"lng":26.8265}},{"number":25284,"name":"Montagnana4Robotics","org":"I.I.S. Jacopo da Montagnana","rookieYear":2023,"homeRegion":"IT","coords":{"lat":45.2347,"lng":11.4549}},{"number":25288,"name":"TEA TEAM","org":"The Petchey Academy","rookieYear":2023,"homeRegion":"GB","coords":{"lat":51.5525,"lng":-0.071}},{"number":25351,"name":"E-Sharks By Saint Joseph Bourg","org":"Lyc\u00e9e Saint Joseph","rookieYear":2023,"homeRegion":"FR","coords":{"lat":46.2017,"lng":5.2274}},{"number":25352,"name":"Schwefel Robotics","org":"Colegiul Na\u021bional Nicolae Titulescu","rookieYear":2023,"homeRegion":"RO","coords":{"lat":45.0697,"lng":25.4368}},{"number":25357,"name":"P4F Robotics","org":"Family/Community","rookieYear":2023,"homeRegion":"GB","coords":{"lat":55.9634,"lng":-3.1955}},{"number":25367,"name":"GADG-bot-74","org":"Coll\u00e8ge Genevi\u00e8ve Anthonioz de Gaulle","rookieYear":2023,"homeRegion":"FR","coords":{"lat":46.0639,"lng":6.5747}},{"number":25378,"name":"UK-264 The Petchey Academy","org":"The Petchey Academy","rookieYear":2023,"homeRegion":"GB","coords":{"lat":51.5525,"lng":-0.071}},{"number":25379,"name":"Robonada","org":"Centar Pozitron","rookieYear":2023,"homeRegion":"","coords":{"lat":45.2243,"lng":13.6083}},{"number":25382,"name":"RobotRex","org":"Westminster School","rookieYear":2023,"homeRegion":"GB","coords":{"lat":51.4984,"lng":-0.128}},{"number":25384,"name":"CFAI Formavenir","org":"CFAI FORMAVENIR","rookieYear":2023,"homeRegion":"FR","coords":{"lat":46.0829,"lng":6.5399}},{"number":25390,"name":"UK - 510 - FIRST STEP ROBOTICS - FS ROBOTICS","org":"FIRST STEP ROBOTICS","rookieYear":2023,"homeRegion":"GB","coords":{"lat":55.9064,"lng":-3.5397}},{"number":25395,"name":"Transformer","org":"ITP Chiavari","rookieYear":2023,"homeRegion":"IT","coords":{"lat":44.3164,"lng":9.3233}},{"number":25396,"name":"UK 513 - Willingdon Community School - WCS Robotics Society","org":"Willingdon Community School","rookieYear":2023,"homeRegion":"GB","coords":{"lat":50.8113,"lng":0.2398}},{"number":25397,"name":"INACTIVE UK 485 - Hornsey School for Girls","org":"Hornsey School for Girls","rookieYear":2023,"homeRegion":"GB","coords":{"lat":51.5821,"lng":-0.1147}},{"number":25399,"name":"ThessRobot","org":"Eduact","rookieYear":2023,"homeRegion":"GR","coords":{"lat":40.6403,"lng":22.9353}},{"number":25405,"name":"ES-R","org":"EK STAVROUPOLIS","rookieYear":2023,"homeRegion":"GR","coords":{"lat":40.6432,"lng":22.9443}},{"number":25407,"name":"West Side Robotics","org":"2o Vocational school of Evosmos","rookieYear":2023,"homeRegion":"GR","coords":{"lat":52.4709,"lng":-1.9244}},{"number":25408,"name":"Sembat Robot","org":"Marcel Sembat","rookieYear":2023,"homeRegion":"FR","coords":{"lat":45.7141,"lng":4.879}},{"number":25409,"name":"INACTIVE UK 029 - Aldersley High School","org":"Aldersley High School & Aldersley High School","rookieYear":2023,"homeRegion":"GB","coords":{"lat":52.6173,"lng":-2.1643}},{"number":25410,"name":"ATS Engineers","org":"Archbishop Temple Church of England High School","rookieYear":2023,"homeRegion":"GB","coords":{"lat":53.7837,"lng":-2.7033}},{"number":25411,"name":"INACTIVE UK534 - Cambourne Village College","org":"Cambourne Village College","rookieYear":2023,"homeRegion":"GB","coords":{"lat":52.2227,"lng":-0.0847}},{"number":25412,"name":"INACTIVE UK534 - Craigroyston Community High School","org":"Craigroyston Community High School","rookieYear":2023,"homeRegion":"GB","coords":{"lat":55.9736,"lng":-3.255}},{"number":25413,"name":"Industria","org":"Fettes College","rookieYear":2023,"homeRegion":"GB","coords":{"lat":55.9651,"lng":-3.2278}},{"number":25414,"name":"INACTIVE UK489 - Fleetwood High School","org":"Fleetwood High School","rookieYear":2023,"homeRegion":"GB","coords":{"lat":53.9099,"lng":-3.0381}},{"number":25415,"name":"INACTIVE UK566 - Fox Grove School","org":"Fox Grove School","rookieYear":2023,"homeRegion":"GB","coords":{"lat":51.2991,"lng":-0.333}},{"number":25416,"name":"Software Therapy","org":"Friend's School","rookieYear":2023,"homeRegion":"GB","coords":{"lat":54.5181,"lng":-6.0449}},{"number":25417,"name":"The Hussars","org":"Garnock Community Campus","rookieYear":2023,"homeRegion":"GB","coords":{"lat":55.7407,"lng":-4.6686}},{"number":25418,"name":"INACTIVE UK549 - Gorgie Mills High School","org":"Gorgie Mills High School","rookieYear":2023,"homeRegion":"GB","coords":{"lat":55.9401,"lng":-3.2296}},{"number":25419,"name":"INACTIVE T\u00eem y ddraig","org":"Greenhill School","rookieYear":2023,"homeRegion":"GB","coords":{"lat":51.6734,"lng":-4.7133}},{"number":25420,"name":"Harefield Robotics","org":"Harefield School","rookieYear":2023,"homeRegion":"GB","coords":{"lat":51.608,"lng":-0.4751}},{"number":25421,"name":"INACTIVE UK524 - Holland Park School","org":"Holland Park School","rookieYear":2023,"homeRegion":"GB","coords":{"lat":51.5048,"lng":-0.2007}},{"number":25422,"name":"INACTIVE- UK 546 - Queensferry High School","org":"Queensferry High School","rookieYear":2023,"homeRegion":"GB","coords":{"lat":55.9859,"lng":-3.3868}},{"number":25423,"name":"Robotastick","org":"Queensferry High School","rookieYear":2023,"homeRegion":"GB","coords":{"lat":55.9859,"lng":-3.3868}},{"number":25424,"name":"INACTIVE UK545 - Robert Blake Science College","org":"Robert Blake Science College","rookieYear":2023,"homeRegion":"GB","coords":{"lat":51.1204,"lng":-3.0059}},{"number":25425,"name":"INACTIVE UK 493 - Royal Wootton Bassett Academy","org":"Royal Wootton Bassett Academy","rookieYear":2023,"homeRegion":"GB","coords":{"lat":51.548,"lng":-1.9051}},{"number":25426,"name":"INACTIVE UK523 - St Edward's Roman Catholic/Church of England School","org":"St Edward's Roman Catholic/Church of England School","rookieYear":2023,"homeRegion":"GB","coords":{"lat":50.7383,"lng":-1.9618}},{"number":25427,"name":"INACTIVE UK473 - Stamford Welland Academy","org":"Stamford Welland Academy","rookieYear":2023,"homeRegion":"GB","coords":{"lat":52.6633,"lng":-0.4802}},{"number":25428,"name":"INACTIVE UK 484 - Tavistock College","org":"Tavistock College","rookieYear":2023,"homeRegion":"GB","coords":{"lat":50.5409,"lng":-4.1538}},{"number":25429,"name":"Westminster 1","org":"Westminster School","rookieYear":2023,"homeRegion":"GB","coords":{"lat":51.4984,"lng":-0.128}},{"number":25430,"name":"Astro Bytes","org":"Woolwich Polytechnic School for Girls","rookieYear":2023,"homeRegion":"GB","coords":{"lat":51.5032,"lng":0.1057}},{"number":25436,"name":"Team Bob!","org":"Comberton Village College","rookieYear":2023,"homeRegion":"GB","coords":{"lat":52.184,"lng":0.0101}},{"number":25443,"name":"Algorithmic Avengers","org":"Turgut Ozal Durres","rookieYear":2023,"homeRegion":"","coords":{"lat":41.3089,"lng":19.4919}},{"number":25445,"name":"GoRobo","org":"Colegiul National \"Emanuil Gojdu\"","rookieYear":2023,"homeRegion":"RO","coords":{"lat":47.0546,"lng":21.9375}},{"number":25451,"name":"Echipa 1","org":"Scoala Test","rookieYear":2023,"homeRegion":"RO","coords":{"lat":45.4171,"lng":28.0093}},{"number":25478,"name":"Echipa 1","org":"Scoala Test & Centrul \"Clasa Viitorului\" & Future Technologies Activity, funded by USAID, Sweden and UKAid, mentored by ByteForce 19234","rookieYear":2023,"homeRegion":"RO","coords":{"lat":45.4338,"lng":28.0549}},{"number":25505,"name":".JSON","org":"1\u03bf \u03a0\u03b5\u03b9\u03c1\u03b1\u03bc\u03b1\u03c4\u03b9\u03ba\u03cc \u0393\u03b5\u03bd\u03b9\u03ba\u03cc \u039b\u03cd\u03ba\u03b5\u03b9\u03bf \u039d\u03ad\u03b1\u03c2 \u0399\u03c9\u03bd\u03af\u03b1\u03c2 \u039c\u03b1\u03b3\u03bd\u03b7\u03c3\u03af\u03b1\u03c2 & TALOS","rookieYear":2023,"homeRegion":"GR","coords":{"lat":39.3832,"lng":22.934}},{"number":25518,"name":"xxxx","org":"Family/Community","rookieYear":2023,"homeRegion":"IT","coords":{"lat":45.0144,"lng":9.4435}},{"number":25526,"name":"Marmotele Coxate","org":"Family/Community","rookieYear":2023,"homeRegion":"RO","coords":{"lat":44.9125,"lng":24.8019}},{"number":25538,"name":"ARRA","org":"Family/Community & Colegiul Economic \"Maria Teiuleanu\"","rookieYear":2023,"homeRegion":"RO","coords":{"lat":44.8546,"lng":24.878}},{"number":25540,"name":"pink floyd ","org":"Family/Community","rookieYear":2023,"homeRegion":"","coords":{"lat":35.8632,"lng":14.3772}},{"number":25558,"name":"ARAMA.TECH","org":"Colegiul Tehnologic Constantin Brancoveanu","rookieYear":2023,"homeRegion":"RO","coords":{"lat":44.9973,"lng":22.8138}},{"number":25581,"name":"Berkeley Green Robotics ","org":"SGS Berkeley Green UTC","rookieYear":2023,"homeRegion":"GB","coords":{"lat":51.6915,"lng":-2.4978}},{"number":25584,"name":"MAGIS","org":"Vilnius Jesuit High School","rookieYear":2023,"homeRegion":"LT","coords":{"lat":54.6783,"lng":25.2894}},{"number":25585,"name":"VJG robotics","org":"Vilnius Jesuit High School","rookieYear":2023,"homeRegion":"LT","coords":{"lat":54.6783,"lng":25.2894}},{"number":25586,"name":"MRF","org":"Family/Community","rookieYear":2023,"homeRegion":"LT","coords":{"lat":54.6878,"lng":25.2781}},{"number":25587,"name":"TECHIN TMLT","org":"Vilniaus technologij\u0173 ir in\u017einerijos mokymo centras","rookieYear":2023,"homeRegion":"LT","coords":{"lat":54.7063,"lng":25.3102}},{"number":25588,"name":"KBG","org":"Family/Community","rookieYear":2023,"homeRegion":"LT","coords":{"lat":55.7128,"lng":21.135}},{"number":25589,"name":"KRYPTON Jr","org":"Family/Community","rookieYear":2023,"homeRegion":"LT","coords":{"lat":55.7128,"lng":21.135}},{"number":25604,"name":"Test team 1","org":"Family/Community","rookieYear":2023,"homeRegion":"","coords":{"lat":60.1669,"lng":24.9509}},{"number":25606,"name":"STEAM Utena","org":"Utena education center","rookieYear":2023,"homeRegion":"LT","coords":{"lat":55.4984,"lng":25.6026}},{"number":25709,"name":"UkrainiX","org":"Family/Community","rookieYear":2024,"homeRegion":"UA","coords":{"lat":51.4085,"lng":30.0437}},{"number":25726,"name":"NewTech 1","org":"New Tech Technical School","rookieYear":2024,"homeRegion":"PL","coords":{"lat":50.7187,"lng":23.2805}},{"number":25727,"name":"New Tech 2","org":"New Tech Technical School in Krakow","rookieYear":2024,"homeRegion":"PL","coords":{"lat":50.0495,"lng":19.9473}},{"number":25796,"name":"Hawkbotics","org":"Family/Community","rookieYear":2024,"homeRegion":"LT","coords":{"lat":54.3961,"lng":24.0459}},{"number":25833,"name":"NEMESIS","org":"iMAGINE LAB","rookieYear":2024,"homeRegion":"GR","coords":{"lat":38.7918,"lng":21.188}},{"number":25841,"name":"Hansei Junior","org":"Colegiul National Ion Creanga","rookieYear":2024,"homeRegion":"RO","coords":{"lat":44.4236,"lng":26.1064}},{"number":25871,"name":"SolarSparks Robotics","org":"\u0218coala Gimnazial\u0103 nr. 30","rookieYear":2024,"homeRegion":"RO","coords":{"lat":45.7335,"lng":21.252}},{"number":25905,"name":"Yellow IOT","org":"Junior IOT","rookieYear":2024,"homeRegion":"NL","coords":{"lat":52.6313,"lng":4.7504}},{"number":25916,"name":"EngiNeerds NextGen","org":"Colegiul Na\u021bional \"Radu Greceanu\"","rookieYear":2024,"homeRegion":"RO","coords":{"lat":44.4319,"lng":24.3511}},{"number":25948,"name":"INVICTUS","org":"Colegio Pureza de Maria Cid","rookieYear":2024,"homeRegion":"ES","coords":{"lat":39.4707,"lng":-0.4091}},{"number":25963,"name":"Android","org":"Family/Community","rookieYear":2024,"homeRegion":"LT","coords":{"lat":54.6878,"lng":25.2781}},{"number":26042,"name":"Blitz","org":"Avenor College & Avenor College","rookieYear":2024,"homeRegion":"RO","coords":{"lat":44.5316,"lng":26.099}},{"number":26075,"name":"Vampire Robotics","org":"Colegiul Na\u021bional \"Tudor Vladimirescu\"","rookieYear":2024,"homeRegion":"RO","coords":{"lat":44.4413,"lng":26.0909}},{"number":26086,"name":"REborn","org":"Bornego College","rookieYear":2024,"homeRegion":"NL","coords":{"lat":52.953,"lng":5.9221}},{"number":26122,"name":"Moo Tech","org":"Roncalli scholengemeenschap","rookieYear":2024,"homeRegion":"NL","coords":{"lat":51.4945,"lng":4.2872}},{"number":26134,"name":"Screw Looose Scientists","org":"21st Century Learning Center","rookieYear":2024,"homeRegion":"NL","coords":{"lat":51.4438,"lng":5.6187}},{"number":26273,"name":"Kesteven and Sleaford High School","org":"Kesteven and Sleaford High School","rookieYear":2024,"homeRegion":"GB","coords":{"lat":52.9968,"lng":-0.412}},{"number":26370,"name":"Llanishen High School","org":"Llanishen High School","rookieYear":2024,"homeRegion":"GB","coords":{"lat":51.532,"lng":-3.1867}},{"number":26458,"name":"MechMinds","org":"Private institution of general secondary education of I-III degrees \"Innovative Lyceum \"I-SCHOOL\"","rookieYear":2024,"homeRegion":"UA","coords":{"lat":50.4407,"lng":30.5444}},{"number":26543,"name":"UkrainiX Jr.","org":"Family/Community","rookieYear":2024,"homeRegion":"UA","coords":{"lat":51.4085,"lng":30.0437}},{"number":26568,"name":"CL-RoboCity","org":"IIS Calabrese Levi","rookieYear":2024,"homeRegion":"IT","coords":{"lat":45.5209,"lng":10.8864}},{"number":26580,"name":"R^2 ","org":"Association of karditsa Educational Robotics, Digital Skills and STEAM LAB","rookieYear":2024,"homeRegion":"GR","coords":{"lat":39.3646,"lng":21.9238}},{"number":26587,"name":"Triple Six","org":"Family/Community","rookieYear":2024,"homeRegion":"GB","coords":{"lat":52.3333,"lng":0.0833}},{"number":26762,"name":"RBL Snoopy","org":"Institut Notre dame de Bellegarde","rookieYear":2024,"homeRegion":"FR","coords":{"lat":45.8703,"lng":4.8409}},{"number":26780,"name":"dawd","org":"Family/Community & Family/Community","rookieYear":2024,"homeRegion":"IND","coords":{"lat":53.9036,"lng":27.5561}},{"number":26796,"name":"RBL Engineer Force","org":"Institut Notre Dame de Bellegarde","rookieYear":2024,"homeRegion":"FR","coords":{"lat":45.8703,"lng":4.8409}},{"number":26838,"name":"Autofocus","org":"Gymn\u00e1zium Jana Keplera","rookieYear":2024,"homeRegion":"NL","coords":{"lat":50.0882,"lng":14.3872}},{"number":26896,"name":"RoboMechanics","org":"Computer Action","rookieYear":2024,"homeRegion":"GR","coords":{"lat":40.6004,"lng":22.955}},{"number":26947,"name":"The Bladerunners","org":"Roer College Sch\u00f6ndeln","rookieYear":2024,"homeRegion":"NL","coords":{"lat":51.1708,"lng":6.0016}},{"number":27072,"name":"Tech Outlaws","org":"Asociaci\u00f3n M\u00c1S QUE ROBOTS","rookieYear":2024,"homeRegion":"ES","coords":{"lat":42.8139,"lng":-1.6607}},{"number":27182,"name":"Frits Philips Robotics","org":"Frits Philips","rookieYear":2024,"homeRegion":"NL","coords":{"lat":51.4423,"lng":5.4657}},