{"generation_timestamp": 1724828298, "season": 2022, "teams": [{"number": 3954, "name": "Pink to the Future", "organisation": "Maerlant-Lyceum", "rookie_year": 2009, "location": {"lat": 52.092010900000005, "lon": 4.321540197661689}}, {"number": 10918, "name": "SPACE", "organisation": "Newmancollege", "rookie_year": 2015, "location": {"lat": 51.60248291536676, "lon": 4.787242028813792}}, {"number": 12475, "name": "Beyond Reach", "organisation": "Zwijsen College", "rookie_year": 2016, "location": {"lat": 51.62681405, "lon": 5.540426171126878}}, {"number": 12819, "name": "Queen Bee", "organisation": "Zwijsen College", "rookie_year": 2017, "location": {"lat": 51.62681405, "lon": 5.540426171126878}}, {"number": 14183, "name": "Dukes of Brabant", "organisation": "Summa College", "rookie_year": 2017, "location": {"lat": 51.44958203036713, "lon": 5.492417693485217}}, {"number": 14381, "name": "Dutch Warriors", "organisation": "Dr.-Knippenbergcollege", "rookie_year": 2018, "location": {"lat": 51.48863095, "lon": 5.680915730555556}}, {"number": 16382, "name": "Casimir Tech", "organisation": "Lorentz Casimir Lyceum", "rookie_year": 2019, "location": {"lat": 51.4478518, "lon": 5.50845619061332}}, {"number": 16383, "name": "Frits Philips Robotics team", "organisation": "Frits Philips lyceum-mavo", "rookie_year": 2019, "location": {"lat": 51.47727355, "lon": 5.44727058868539}}, {"number": 16402, "name": "Panic Attack", "organisation": "Gymnasium Beekvliet", "rookie_year": 2019, "location": {"lat": 51.64190165, "lon": 5.364702195874301}}, {"number": 16409, "name": "Team Orange", "organisation": "Newmancollege", "rookie_year": 2019, "location": {"lat": 51.60248291536676, "lon": 4.787242028813792}}, {"number": 16410, "name": "GentleBotz", "organisation": "Newmancollege", "rookie_year": 2019, "location": {"lat": 51.60248291536676, "lon": 4.787242028813792}}, {"number": 16441, "name": "Pretty Smart Robotics", "organisation": " Family/Community", "rookie_year": 2019, "location": {"lat": 53.2201881, "lon": 6.3067102}}, {"number": 16785, "name": "Team ProBotiX", "organisation": "Pius X College", "rookie_year": 2019, "location": {"lat": 51.3731553, "lon": 5.2324544}}, {"number": 16788, "name": "The Encrypted Gentlemen", "organisation": "Sondervick College", "rookie_year": 2019, "location": {"lat": 51.4040921, "lon": 5.382998012393527}}, {"number": 16850, "name": "Breul-1", "organisation": "KSG de Breul", "rookie_year": 2019, "location": {"lat": 52.073699221015154, "lon": 5.259040670412101}}, {"number": 16951, "name": "Team Rembrandts", "organisation": "Team Rembrandts", "rookie_year": 2019, "location": {"lat": 51.4392648, "lon": 5.478633}}, {"number": 16977, "name": "Roboni Forever", "organisation": "St. Bonifatiuscollege", "rookie_year": 2019, "location": {"lat": 52.0834014, "lon": 5.136494689856887}}, {"number": 17258, "name": "The Scrapyard-Warriors", "organisation": "Northgo Colege", "rookie_year": 2019, "location": {"lat": 52.2410856, "lon": 4.4461969}}, {"number": 17259, "name": "RoboVLC", "organisation": "Veenlandencollege", "rookie_year": 2019, "location": {"lat": 52.2060181, "lon": 4.8648168}}, {"number": 17579, "name": "HU-Talent Bots", "organisation": "Hogeschool Utrecht", "rookie_year": 2019, "location": {"lat": 52.1592134, "lon": 5.3799549}}, {"number": 17652, "name": "Delta", "organisation": "Willem van Oranje College", "rookie_year": 2019, "location": {"lat": 51.683171, "lon": 5.0518473}}, {"number": 18425, "name": "Ubbo Tech Team", "organisation": "Ubbo Emmius Scholengemeenschap", "rookie_year": 2020, "location": {"lat": 52.996240099999994, "lon": 7.001434882926471}}, {"number": 18601, "name": "Codebusters", "organisation": "Haags  Montessori lyceum", "rookie_year": 2020, "location": {"lat": 52.0900116, "lon": 4.321438937086111}}, {"number": 18700, "name": "Iactate Altius", "organisation": "Stedelijk Gymnasium Schiedam", "rookie_year": 2020, "location": {"lat": 51.9300454, "lon": 4.386451052615731}}, {"number": 18710, "name": "Stanislas Tech Academy", "organisation": "Stanislascollege Westplantsoen", "rookie_year": 2020, "location": {"lat": 52.0084596, "lon": 4.345252571478966}}, {"number": 18859, "name": "Stanislas Tech Team", "organisation": "Stanislascollege Westplantsoen", "rookie_year": 2020, "location": {"lat": 52.0084596, "lon": 4.345252571478966}}, {"number": 18957, "name": "Baufakers", "organisation": "Christelijk Lyceum Zandvliet", "rookie_year": 2020, "location": {"lat": 52.0852395, "lon": 4.3293071}}, {"number": 19393, "name": "Dummy team FTC Netherlands", "organisation": "FTC Netherlands", "rookie_year": 2021, "location": {"lat": 51.4392648, "lon": 5.478633}}, {"number": 19444, "name": "Lorentz Engineering", "organisation": "Lorentz Casimir Lyceum", "rookie_year": 2021, "location": {"lat": 51.4478518, "lon": 5.50845619061332}}, {"number": 20091, "name": "Blood Sweat and Gears", "organisation": "Maerlant Lyceum", "rookie_year": 2021, "location": {"lat": 52.092010900000005, "lon": 4.321540197661689}}, {"number": 20361, "name": "RoboRev", "organisation": "Revius Lyceum Doorn", "rookie_year": 2021, "location": {"lat": 52.03716945, "lon": 5.325227447901179}}, {"number": 20738, "name": "secbirdmachine 2", "organisation": "d'Oultremontcollege", "rookie_year": 2021, "location": {"lat": 51.6862832, "lon": 5.130986}}, {"number": 20760, "name": "Impossible Robotics", "organisation": "Family/Community", "rookie_year": 2021, "location": {"lat": 53.1351684, "lon": 6.8706286}}, {"number": 21218, "name": "SintLucas", "organisation": "SintLucas", "rookie_year": 2021, "location": {"lat": 51.44688907137068, "lon": 5.454624753014731}}, {"number": 21349, "name": "Screw Looose Scientists", "organisation": "Hessama Activiteitenbegeleiding", "rookie_year": 2022, "location": {"lat": 51.4437624, "lon": 5.6187496}}, {"number": 21408, "name": "Frits Philips Robotics team", "organisation": "Frits Philips lyceum-mavo", "rookie_year": 2022, "location": {"lat": 51.47727355, "lon": 5.44727058868539}}, {"number": 21658, "name": "Emmauscollege Thunder Wonder", "organisation": "Emmauscollege", "rookie_year": 2022, "location": {"lat": 51.9244424, "lon": 4.47775}}, {"number": 21904, "name": "HighLand", "organisation": "ISW Hoogeland", "rookie_year": 2022, "location": {"lat": 51.98749335, "lon": 4.203313528540783}}, {"number": 21983, "name": "The RoboRats", "organisation": "Penta Jacob van Liesveldt", "rookie_year": 2022, "location": {"lat": 51.833921, "lon": 4.1436739}}, {"number": 22020, "name": "Gymnasium Haganum", "organisation": "Gymnasium Haganum", "rookie_year": 2022, "location": {"lat": 52.0839494, "lon": 4.2911504}}, {"number": 22052, "name": "Friesland College 1", "organisation": "ROC Friesland College", "rookie_year": 2022, "location": {"lat": 53.189259, "lon": 5.783841847811491}}, {"number": 22085, "name": "Friesland College 2", "organisation": "ROC Friesland College", "rookie_year": 2022, "location": {"lat": 53.189259, "lon": 5.783841847811491}}, {"number": 22173, "name": "Red Monkeys", "organisation": "Buurtcollege Maas en Peel", "rookie_year": 2022, "location": {"lat": 51.3287995, "lon": 5.9819406}}, {"number": 22223, "name": "Curio one", "organisation": "Curio", "rookie_year": 2022, "location": {"lat": 51.60679924419499, "lon": 4.77821120457018}}, {"number": 22224, "name": "Rookies", "organisation": "'t Hooghelandt", "rookie_year": 2022, "location": {"lat": 52.1562499, "lon": 5.3896944}}, {"number": 22227, "name": "Cyber Bears", "organisation": "International School of Amsterdam", "rookie_year": 2022, "location": {"lat": 52.2894927, "lon": 4.860737303549103}}, {"number": 22729, "name": "Zappp!", "organisation": "Dynamo Jeugdwerk", "rookie_year": 2022, "location": {"lat": 51.4392648, "lon": 5.478633}}, {"number": 22770, "name": "Team Engineering Curio BOZ", "organisation": " Technologie", "rookie_year": 2022, "location": {"lat": 51.4944756, "lon": 4.2871541}}, {"number": 22981, "name": "testingboni", "organisation": "Family/Community", "rookie_year": 2022, "location": {"lat": 52.0907006, "lon": 5.1215634}}, {"number": 23014, "name": "The Flying Dutchman", "organisation": "The American School of The Hague", "rookie_year": 2022, "location": {"lat": 52.14663965, "lon": 4.42342777517001}}], "events": [{"code": "NLBRKO", "type_code": 12, "type_name": "Kickoff", "name": "Netherlands Kickoff", "date": "2022-09-10", "venue": "Avans University of Applied Sciences", "location": {"lat": 51.5837146, "lon": 4.79711}}, {"code": "NLNLLT", "type_code": 4, "type_name": "Championship", "name": "Netherlands FTC Benelux Championship", "date": "2023-02-11", "venue": "SintLucas", "location": {"lat": 51.446785199999994, "lon": 5.454737303516455}}, {"code": "NLNLM1", "type_code": 1, "type_name": "League Meet", "name": "NL League Meet The Hague", "date": "2022-12-03", "venue": "Maerlant-lyceum", "location": {"lat": 52.092162, "lon": 4.3218736}}, {"code": "NLNLM2", "type_code": 1, "type_name": "League Meet", "name": "NL League Meet Hasselt", "date": "2022-12-10", "venue": "VOKA Kamer van Koophandel Limburg", "location": {"lat": 51.4260809, "lon": 6.1610328}}, {"code": "NLNLM3", "type_code": 1, "type_name": "League Meet", "name": "NL League Meet Bladel", "date": "2023-01-14", "venue": "Pius X-college", "location": {"lat": 51.3712108, "lon": 5.2304261}}, {"code": "NLNLM4", "type_code": 1, "type_name": "League Meet", "name": "NL League Meet Zeist", "date": "2023-01-21", "venue": "KSG De Breul", "location": {"lat": 52.0720522, "lon": 5.2576554}}, {"code": "NLNLM5", "type_code": 1, "type_name": "League Meet", "name": "NL League Meet Delft", "date": "2023-01-28", "venue": "Stanislas College Westplantsoen", "location": {"lat": 52.0084596, "lon": 4.345252571478966}}, {"code": "NLNLM6", "type_code": 1, "type_name": "League Meet", "name": "NL League Meet Eindhoven", "date": "2022-11-26", "venue": "Lorentz Casimir Lyceum", "location": {"lat": 51.4477576, "lon": 5.5069487}}]}