{"generation_timestamp": 1724828490, "season": 2023, "teams": [{"number": 3954, "name": "Pink to the Future", "organisation": "Maerlant-Lyceum", "rookie_year": 2009, "location": {"lat": 52.092010900000005, "lon": 4.321540197661689}}, {"number": 3977, "name": "Stanislas Tech Team", "organisation": "Stanislascollege", "rookie_year": 2009, "location": {"lat": 52.0084596, "lon": 4.345252571478966}}, {"number": 10183, "name": "F.R.O.G.  Frog Robots Of Germany", "organisation": "Koenigin-Katharina-Stift", "rookie_year": 2015, "location": {"lat": 48.7812325, "lon": 9.185303563754776}}, {"number": 10918, "name": "SPACE", "organisation": "Newmancollege", "rookie_year": 2015, "location": {"lat": 51.60248291536676, "lon": 4.787242028813792}}, {"number": 12463, "name": "KKST-KeepKeenShowTech", "organisation": "K\u00f6nigin-Katharina-Stift", "rookie_year": 2016, "location": {"lat": 48.7812325, "lon": 9.185303563754776}}, {"number": 12475, "name": "Beyond Reach", "organisation": "Zwijsen College", "rookie_year": 2016, "location": {"lat": 51.62681405, "lon": 5.540426171126878}}, {"number": 12819, "name": "Queen Bee", "organisation": "Zwijsen College", "rookie_year": 2017, "location": {"lat": 51.62681405, "lon": 5.540426171126878}}, {"number": 13953, "name": "Stanislas Tech Academy", "organisation": "Stanislascollege", "rookie_year": 2017, "location": {"lat": 52.0084596, "lon": 4.345252571478966}}, {"number": 14144, "name": "EAGlets", "organisation": "Ernst-Abbe-Gymnasium", "rookie_year": 2017, "location": {"lat": 48.8501077, "lon": 9.914893}}, {"number": 14183, "name": "Dukes of Brabant", "organisation": "Summa College", "rookie_year": 2017, "location": {"lat": 51.44958203036713, "lon": 5.492417693485217}}, {"number": 14381, "name": "Dutch Warriors", "organisation": "Dr.-Knippenbergcollege", "rookie_year": 2018, "location": {"lat": 51.48863095, "lon": 5.680915730555556}}, {"number": 16382, "name": "Casimir Tech", "organisation": "Lorentz Casimir Lyceum", "rookie_year": 2019, "location": {"lat": 51.4478518, "lon": 5.50845619061332}}, {"number": 16383, "name": "Frits Philips Robotics team", "organisation": "Frits Philips lyceum-mavo", "rookie_year": 2019, "location": {"lat": 51.47727355, "lon": 5.44727058868539}}, {"number": 16402, "name": "Panic Attack", "organisation": "Gymnasium Beekvliet", "rookie_year": 2019, "location": {"lat": 51.64190165, "lon": 5.364702195874301}}, {"number": 16409, "name": "Team Orange", "organisation": "Newmancollege", "rookie_year": 2019, "location": {"lat": 51.60248291536676, "lon": 4.787242028813792}}, {"number": 16410, "name": "GentleBotz", "organisation": "Newmancollege", "rookie_year": 2019, "location": {"lat": 51.60248291536676, "lon": 4.787242028813792}}, {"number": 16441, "name": "Pretty Smart Robotics", "organisation": " Family/Community", "rookie_year": 2019, "location": {"lat": 53.2201881, "lon": 6.3067102}}, {"number": 16530, "name": "Cadmes Creators", "organisation": "Family/Community", "rookie_year": 2019, "location": {"lat": 51.6590888, "lon": 5.6148605}}, {"number": 16785, "name": "Team ProBotiX", "organisation": "Pius X College", "rookie_year": 2019, "location": {"lat": 51.3731553, "lon": 5.2324544}}, {"number": 16788, "name": "The Encrypted Gentlemen", "organisation": "Sondervick College", "rookie_year": 2019, "location": {"lat": 51.4040921, "lon": 5.382998012393527}}, {"number": 16850, "name": "Breul-1", "organisation": "KSG de Breul", "rookie_year": 2019, "location": {"lat": 52.073699221015154, "lon": 5.259040670412101}}, {"number": 16951, "name": "Team Rembrandts", "organisation": "Team Rembrandts", "rookie_year": 2019, "location": {"lat": 51.4392648, "lon": 5.478633}}, {"number": 16977, "name": "Roboni Forever", "organisation": "St. Bonifatiuscollege", "rookie_year": 2019, "location": {"lat": 52.0834014, "lon": 5.136494689856887}}, {"number": 17046, "name": "Cybears 1", "organisation": "International School of Amsterdam", "rookie_year": 2019, "location": {"lat": 52.2894927, "lon": 4.860737303549103}}, {"number": 17134, "name": "Zappp", "organisation": "Tech Playgrounds - Dynamo Youthworks", "rookie_year": 2019, "location": {"lat": 51.442479261363445, "lon": 5.460231941581606}}, {"number": 17227, "name": "Roboni Rookies", "organisation": "St. Bonifatiuscollege", "rookie_year": 2019, "location": {"lat": 52.0834014, "lon": 5.136494689856887}}, {"number": 17258, "name": "The Scrapyard-Warriors", "organisation": "Northgo Colege", "rookie_year": 2019, "location": {"lat": 52.2410856, "lon": 4.4461969}}, {"number": 17259, "name": "RoboVLC", "organisation": "Veenlandencollege", "rookie_year": 2019, "location": {"lat": 52.2060181, "lon": 4.8648168}}, {"number": 17579, "name": "HU-Talent Bots", "organisation": "Hogeschool Utrecht", "rookie_year": 2019, "location": {"lat": 52.1592134, "lon": 5.3799549}}, {"number": 17629, "name": "Q-Bots", "organisation": "Johannes Fontanus College", "rookie_year": 2019, "location": {"lat": 52.149306, "lon": 5.5806926}}, {"number": 17651, "name": "The Probots", "organisation": "Dalton Lyceum Barendrecht", "rookie_year": 2019, "location": {"lat": 51.8566651, "lon": 4.5368567}}, {"number": 17652, "name": "Delta", "organisation": "Willem van Oranje College", "rookie_year": 2019, "location": {"lat": 51.683171, "lon": 5.0518473}}, {"number": 18425, "name": "Ubbo Tech Team", "organisation": "Ubbo Emmius Scholengemeenschap", "rookie_year": 2020, "location": {"lat": 52.996240099999994, "lon": 7.001434882926471}}, {"number": 18601, "name": "Codebusters", "organisation": "Haags  Montessori lyceum", "rookie_year": 2020, "location": {"lat": 52.0900116, "lon": 4.321438937086111}}, {"number": 18690, "name": "Iactate Altius", "organisation": "Stedelijk Gymnasium Schiedam", "rookie_year": 2020, "location": {"lat": 51.9300454, "lon": 4.386451052615731}}, {"number": 18700, "name": "Iactate Altius", "organisation": "Stedelijk Gymnasium Schiedam", "rookie_year": 2020, "location": {"lat": 51.9300454, "lon": 4.386451052615731}}, {"number": 18710, "name": "Stanislas Tech Academy", "organisation": "Stanislascollege Westplantsoen", "rookie_year": 2020, "location": {"lat": 52.0084596, "lon": 4.345252571478966}}, {"number": 18779, "name": "GROEVENBEEK1!", "organisation": "Christelijk College Groevenbeek", "rookie_year": 2020, "location": {"lat": 52.2858356, "lon": 5.654938589920705}}, {"number": 18859, "name": "Stanislas Tech Team", "organisation": "Stanislascollege Westplantsoen", "rookie_year": 2020, "location": {"lat": 52.0084596, "lon": 4.345252571478966}}, {"number": 18916, "name": "Cyber Team Doorn", "organisation": "Revius Lyceum Doorn", "rookie_year": 2020, "location": {"lat": 52.03716945, "lon": 5.325227447901179}}, {"number": 18917, "name": "thE Agent Group", "organisation": "Ernst-Abbe-Gymnasium", "rookie_year": 2020, "location": {"lat": 48.788508199999995, "lon": 10.114022431500992}}, {"number": 18957, "name": "Baufakers", "organisation": "Christelijk Lyceum Zandvliet", "rookie_year": 2020, "location": {"lat": 52.0852395, "lon": 4.3293071}}, {"number": 19393, "name": "Dummy team FTC Netherlands", "organisation": "FTC Netherlands", "rookie_year": 2021, "location": {"lat": 51.4392648, "lon": 5.478633}}, {"number": 19444, "name": "Lorentz Engineering", "organisation": "Lorentz Casimir Lyceum", "rookie_year": 2021, "location": {"lat": 51.4478518, "lon": 5.50845619061332}}, {"number": 20091, "name": "Blood Sweat and Gears", "organisation": "Maerlant Lyceum", "rookie_year": 2021, "location": {"lat": 52.092010900000005, "lon": 4.321540197661689}}, {"number": 20092, "name": "RTF-RoboticTechFrox", "organisation": "K\u00f6nigin-Katharina-Stift", "rookie_year": 2021, "location": {"lat": 48.7812325, "lon": 9.185303563754776}}, {"number": 20136, "name": "AngryNerds", "organisation": "Haags Montessori Lyceum", "rookie_year": 2021, "location": {"lat": 52.0799838, "lon": 4.3113461}}, {"number": 20144, "name": "De Chips", "organisation": "ISW Hoogeland", "rookie_year": 2021, "location": {"lat": 51.98749335, "lon": 4.203313528540783}}, {"number": 20361, "name": "RoboRev", "organisation": "Revius Lyceum Doorn", "rookie_year": 2021, "location": {"lat": 52.03716945, "lon": 5.325227447901179}}, {"number": 20738, "name": "secbirdmachine 2", "organisation": "d'Oultremontcollege", "rookie_year": 2021, "location": {"lat": 51.6862832, "lon": 5.130986}}, {"number": 20760, "name": "Impossible Robotics", "organisation": "Family/Community", "rookie_year": 2021, "location": {"lat": 53.1351684, "lon": 6.8706286}}, {"number": 20792, "name": "Cybears", "organisation": "International School of Amsterdam", "rookie_year": 2021, "location": {"lat": 52.2894927, "lon": 4.860737303549103}}, {"number": 21218, "name": "SintLucas", "organisation": "SintLucas", "rookie_year": 2021, "location": {"lat": 51.44688907137068, "lon": 5.454624753014731}}, {"number": 21349, "name": "Screw Looose Scientists", "organisation": "Hessama Activiteitenbegeleiding", "rookie_year": 2022, "location": {"lat": 51.4437624, "lon": 5.6187496}}, {"number": 21408, "name": "Frits Philips Robotics team", "organisation": "Frits Philips lyceum-mavo", "rookie_year": 2022, "location": {"lat": 51.47727355, "lon": 5.44727058868539}}, {"number": 21651, "name": "Thunder Kites", "organisation": "Benjamin Franklin International School", "rookie_year": 2022, "location": {"lat": 41.4062147, "lon": 2.1188243151428057}}, {"number": 21658, "name": "Emmauscollege Thunder Wonder", "organisation": "Emmauscollege", "rookie_year": 2022, "location": {"lat": 51.9244424, "lon": 4.47775}}, {"number": 21904, "name": "HighLand", "organisation": "ISW Hoogeland", "rookie_year": 2022, "location": {"lat": 51.98749335, "lon": 4.203313528540783}}, {"number": 21905, "name": "BCS Vikings ", "organisation": "Akademiet Realfagsgymnas Sandvika AS", "rookie_year": 2022, "location": {"lat": 60.771229, "lon": 11.092071}}, {"number": 21983, "name": "The RoboRats", "organisation": "Penta Jacob van Liesveldt", "rookie_year": 2022, "location": {"lat": 51.833921, "lon": 4.1436739}}, {"number": 22020, "name": "Gymnasium Haganum", "organisation": "Gymnasium Haganum", "rookie_year": 2022, "location": {"lat": 52.0839494, "lon": 4.2911504}}, {"number": 22052, "name": "Cheese from the Bacon", "organisation": "ROC Friesland College", "rookie_year": 2022, "location": {"lat": 53.189259, "lon": 5.783841847811491}}, {"number": 22085, "name": "Friesland College 2", "organisation": "ROC Friesland College", "rookie_year": 2022, "location": {"lat": 53.189259, "lon": 5.783841847811491}}, {"number": 22106, "name": "i5B", "organisation": "Provinciale handelsschool Hasselt", "rookie_year": 2022, "location": {"lat": 50.9386533, "lon": 5.345089400229259}}, {"number": 22107, "name": "Tectura 1", "organisation": "Tectura Gent-Centrum", "rookie_year": 2022, "location": {"lat": 51.0538286, "lon": 3.7250121}}, {"number": 22173, "name": "Red Monkeys", "organisation": "Buurtcollege Maas en Peel", "rookie_year": 2022, "location": {"lat": 51.3287995, "lon": 5.9819406}}, {"number": 22223, "name": "Curio one", "organisation": "Curio", "rookie_year": 2022, "location": {"lat": 51.60679924419499, "lon": 4.77821120457018}}, {"number": 22224, "name": "Buzz Lightyear", "organisation": "'t Hooghelandt", "rookie_year": 2022, "location": {"lat": 52.1562499, "lon": 5.3896944}}, {"number": 22227, "name": "Cyber Bears", "organisation": "International School of Amsterdam", "rookie_year": 2022, "location": {"lat": 52.2894927, "lon": 4.860737303549103}}, {"number": 22507, "name": "Robo Rangers", "organisation": "TISM", "rookie_year": 2022, "location": {"lat": 51.134808899999996, "lon": 5.598856218941681}}, {"number": 22621, "name": "Byte Brigade", "organisation": "TISM", "rookie_year": 2022, "location": {"lat": 51.134808899999996, "lon": 5.598856218941681}}, {"number": 22729, "name": "Zappp!", "organisation": "Dynamo Jeugdwerk", "rookie_year": 2022, "location": {"lat": 51.4392648, "lon": 5.478633}}, {"number": 22770, "name": "Team Engineering Curio BOZ", "organisation": " Technologie", "rookie_year": 2022, "location": {"lat": 51.4944756, "lon": 4.2871541}}, {"number": 22981, "name": "testingboni", "organisation": "Family/Community", "rookie_year": 2022, "location": {"lat": 52.0907006, "lon": 5.1215634}}, {"number": 23014, "name": "The Flying Dutchman", "organisation": "The American School of The Hague", "rookie_year": 2022, "location": {"lat": 52.14663965, "lon": 4.42342777517001}}, {"number": 23064, "name": "Coderdojo Zottegem", "organisation": "Family/Community", "rookie_year": 2022, "location": {"lat": 50.9252028, "lon": 3.7896135}}, {"number": 23252, "name": "FTC NEOBOTS", "organisation": "Family/Community", "rookie_year": 2023, "location": {"lat": 51.5646434, "lon": 5.4610004}}, {"number": 23253, "name": "TransPhormers", "organisation": "Phorms Campus Berlin Mitte", "rookie_year": 2023, "location": {"lat": 52.53915495, "lon": 13.384644581736005}}, {"number": 23283, "name": "M-mais", "organisation": "Emmauscollege", "rookie_year": 2023, "location": {"lat": 51.9244424, "lon": 4.47775}}, {"number": 23294, "name": "Screw Looose Scientists", "organisation": "Hessama Tech-Jeugd", "rookie_year": 2023, "location": {"lat": 51.4437624, "lon": 5.6187496}}, {"number": 23309, "name": "Breul Future", "organisation": "KSG De Breul", "rookie_year": 2023, "location": {"lat": 52.073699221015154, "lon": 5.259040670412101}}, {"number": 23390, "name": "Dazzling Duckies", "organisation": "Zwijsen College Veghel", "rookie_year": 2023, "location": {"lat": 51.62681405, "lon": 5.540426171126878}}, {"number": 23417, "name": "The Energizers", "organisation": "Wings Agora Roermond", "rookie_year": 2023, "location": {"lat": 51.1923590920304, "lon": 6.007159324161738}}, {"number": 23452, "name": "FTC TieWraps", "organisation": "Heerbeeck College", "rookie_year": 2023, "location": {"lat": 51.4990647, "lon": 5.3822034}}, {"number": 23525, "name": "Tech Campus De School", "organisation": "Family/Community", "rookie_year": 2023, "location": {"lat": 52.2027173, "lon": 4.6312402}}, {"number": 23846, "name": "Aeres Green Tech Frisians", "organisation": "Aeres VMBO Buitenpost", "rookie_year": 2023, "location": {"lat": 53.2540233, "lon": 6.1443119}}, {"number": 23909, "name": "Raayland GoeS Tech", "organisation": "Raayland College", "rookie_year": 2023, "location": {"lat": 51.51932105, "lon": 5.977046445836214}}, {"number": 24003, "name": "Handelsschool Hasselt", "organisation": "Provinciale Handelsschool Hasselt", "rookie_year": 2023, "location": {"lat": 50.9386533, "lon": 5.345089400229259}}, {"number": 24090, "name": "Trojan Robotics", "organisation": "The American School of The Hague", "rookie_year": 2023, "location": {"lat": 52.14663965, "lon": 4.42342777517001}}, {"number": 24138, "name": "TECH WIZARDS", "organisation": "Curio", "rookie_year": 2023, "location": {"lat": 51.4944756, "lon": 4.2871541}}, {"number": 24139, "name": "MILK", "organisation": "NGO Tavo robotas", "rookie_year": 2023, "location": {"lat": 55.3413747, "lon": 21.4605697}}, {"number": 24145, "name": "ROBO-TECH", "organisation": "Family/Community", "rookie_year": 2023, "location": {"lat": 54.8982139, "lon": 23.9044817}}, {"number": 24274, "name": "TechWizards007", "organisation": "Home School", "rookie_year": 2023, "location": {"lat": 50.9406957, "lon": 5.1659696}}, {"number": 24444, "name": "Spykers on low water", "organisation": "Rijswijks Lyceum", "rookie_year": 2023, "location": {"lat": 52.043562, "lon": 4.3121331}}, {"number": 24553, "name": "TechWolves", "organisation": "Family/Community", "rookie_year": 2023, "location": {"lat": 52.4205588, "lon": 10.7861682}}, {"number": 24875, "name": "BlackBirdBroke", "organisation": "Atheneum Merelbeke", "rookie_year": 2023, "location": {"lat": 50.99145865, "lon": 3.74007130636235}}], "events": [{"code": "NLBNM1", "type_code": 1, "type_name": "League Meet", "name": "NL Benelux LM Leek", "date": "2023-12-09", "venue": "De Lindenborg", "location": {"lat": 53.1618661, "lon": 6.3689584}}, {"code": "NLBNM2", "type_code": 1, "type_name": "League Meet", "name": "NL Benelux LM The Hague 2", "date": "2023-12-03", "venue": "Maerlant-Lyceum", "location": {"lat": 52.092162, "lon": 4.3218736}}, {"code": "NLBNM3", "type_code": 1, "type_name": "League Meet", "name": "NL Benelux LM The Hague 1", "date": "2023-12-02", "venue": "Maerlant-Lyceum", "location": {"lat": 52.092162, "lon": 4.3218736}}, {"code": "NLBNM4", "type_code": 1, "type_name": "League Meet", "name": "NL Benelux LM Eindhoven", "date": "2023-11-25", "venue": "Frits Philips Lyceum", "location": {"lat": 51.47727355, "lon": 5.44727058868539}}, {"code": "NLBNM5", "type_code": 1, "type_name": "League Meet", "name": "NL Benelux LM Zeist", "date": "2024-01-13", "venue": "KSG De Breul", "location": {"lat": 52.0720522, "lon": 5.2576554}}, {"code": "NLBNM6", "type_code": 1, "type_name": "League Meet", "name": "NL Benelux LM Bladel 1", "date": "2024-01-20", "venue": "Pius X-college", "location": {"lat": 51.3704098, "lon": 5.2307688}}, {"code": "NLBNM7", "type_code": 1, "type_name": "League Meet", "name": "NL Benelux LM Bladel 2", "date": "2024-01-21", "venue": "Pius X-college", "location": {"lat": 51.3704098, "lon": 5.2307688}}, {"code": "NLBNM8", "type_code": 1, "type_name": "League Meet", "name": "NL Benelux LM Hasselt", "date": "2024-01-27", "venue": "PXL University of Applied Sciences and Arts", "location": {"lat": 50.9381827, "lon": 5.34814570939703}}, {"code": "NLBRS", "type_code": 0, "type_name": "Scrimmage", "name": "NL Benelux FTC Scrimmage", "date": "2024-02-24", "venue": "Avans University of Applied Sciences", "location": {"lat": 51.5837146, "lon": 4.79711}}, {"code": "NLCMP", "type_code": 4, "type_name": "Championship", "name": "Netherlands Benelux Championship", "date": "2024-02-24", "venue": "Avans University of Applied Sciences", "location": {"lat": 51.5837146, "lon": 4.79711}}, {"code": "NLEIKO", "type_code": 12, "type_name": "Kickoff", "name": "NL Kickoff CENTERSTAGE", "date": "2023-09-09", "venue": "SintLucas", "location": {"lat": 51.446785199999994, "lon": 5.454737303516455}}]}